$GPGGA,092831.000,,,,,0,00,,,M,,M,,0000*79
$GPRMC,092831.000,V,,,,,,,310317,,,N*4B
$GPVTG,,T,,M,,N,,K,N*2C
$GPGGA,092832.000,,,,,0,00,,,M,,M,,0000*7A
$GPGSA,A,1,,,,,,,,,,,,,,,*1E
$GPGSV,1,1,04,15,00,000,16,08,00,000,18,27,00,000,34,16,00,000,31*78
$GPRMC,092832.000,V,,,,,,,310317,,,N*48
$GPVTG,,T,,M,,N,,K,N*2C
$GPGGA,092833.000,,,,,0,00,,,M,,M,,0000*7B
$GPRMC,092833.000,V,,,,,,,310317,,,N*49
$GPVTG,,T,,M,,N,,K,N*2C
$GPGGA,092834.000,,,,,0,00,,,M,,M,,0000*7C
$GPRMC,092834.000,V,,,,,,,310317,,,N*4E
$GPVTG,,T,,M,,N,,K,N*2C
$GPGGA,092835.000,,,,,0,00,,,M,,M,,0000*7D
$GPRMC,092835.000,V,,,,,,,310317,,,N*4F
$GPVTG,,T,,M,,N,,K,N*2C
$GPGGA,092836.000,,,,,0,00,,,M,,M,,0000*7E
$GPRMC,092836.000,V,,,,,,,310317,,,N*4C
$GPVTG,,T,,M,,N,,K,N*2C
$GPGGA,092837.000,,,,,0,00,,,M,,M,,0000*7F
$GPGSA,A,1,,,,,,,,,,,,,,,*1E
$GPGSV,1,1,04,15,00,000,16,08,00,000,18,27,00,000,34,16,00,000,31*78
$GPRMC,092837.000,V,,,,,,,310317,,,N*4D
$GPVTG,,T,,M,,N,,K,N*2C
$GPGGA,092838.000,,,,,0,00,,,M,,M,,0000*70
$GPRMC,092838.000,V,,,,,,,310317,,,N*42
$GPVTG,,T,,M,,N,,K,N*2C
$GPGGA,092839.000,,,,,0,00,,,M,,M,,0000*71
$GPRMC,092839.000,V,,,,,,,310317,,,N*43
$GPVTG,,T,,M,,N,,K,N*2C
$GPGGA,092840.000,,,,,0,00,,,M,,M,,0000*7F
$GPRMC,092840.000,V,,,,,,,310317,,,N*4D
$GPVTG,,T,,M,,N,,K,N*2C
$GPGGA,092841.000,,,,,0,00,,,M,,M,,0000*7E
$GPRMC,092841.000,V,,,,,,,310317,,,N*4C
$GPVTG,,T,,M,,N,,K,N*2C
$GPGGA,092842.000,,,,,0,00,,,M,,M,,0000*7D
$GPGSA,A,1,,,,,,,,,,,,,,,*1E
$GPGSV,1,1,04,15,00,000,16,08,00,000,22,27,00,000,35,16,00,000,30*71
$GPRMC,092842.000,V,,,,,,,310317,,,N*4F
$GPVTG,,T,,M,,N,,K,N*2C
$GPGGA,092843.000,,,,,0,00,,,M,,M,,0000*7C
$GPRMC,092843.000,V,,,,,,,310317,,,N*4E
$GPVTG,,T,,M,,N,,K,N*2C
$GPGGA,092844.000,,,,,0,00,,,M,,M,,0000*7B
$GPRMC,092844.000,V,,,,,,,310317,,,N*49
$GPVTG,,T,,M,,N,,K,N*2C
$GPGGA,092845.000,,,,,0,00,,,M,,M,,0000*7A
$GPRMC,092845.000,V,,,,,,,310317,,,N*48
$GPVTG,,T,,M,,N,,K,N*2C
$GPGGA,092846.000,,,,,0,00,,,M,,M,,0000*79
$GPRMC,092846.000,V,,,,,,,310317,,,N*4B
$GPVTG,,T,,M,,N,,K,N*2C
$GPGGA,092847.000,,,,,0,00,,,M,,M,,0000*78
$GPGSA,A,1,,,,,,,,,,,,,,,*1E
$GPGSV,1,1,04,15,00,000,17,08,00,000,22,27,00,000,35,16,00,000,30*70
$GPRMC,092847.000,V,,,,,,,310317,,,N*4A
$GPVTG,,T,,M,,N,,K,N*2C
$GPGGA,092848.000,,,,,0,00,,,M,,M,,0000*77
$GPRMC,092848.000,V,,,,,,,310317,,,N*45
$GPVTG,,T,,M,,N,,K,N*2C
$GPGGA,092849.000,,,,,0,00,,,M,,M,,0000*76
$GPRMC,092849.000,V,,,,,,,310317,,,N*44
$GPVTG,,T,,M,,N,,K,N*2C
$GPGGA,092850.000,,,,,0,00,,,M,,M,,0000*7E
$GPRMC,092850.000,V,,,,,,,310317,,,N*4C
$GPVTG,,T,,M,,N,,K,N*2C
$GPGGA,092851.000,,,,,0,00,,,M,,M,,0000*7F
$GPRMC,092851.000,V,,,,,,,310317,,,N*4D
$GPVTG,,T,,M,,N,,K,N*2C
$GPGGA,092852.000,,,,,0,00,,,M,,M,,0000*7C
$GPGSA,A,1,,,,,,,,,,,,,,,*1E
$GPGSV,1,1,04,15,00,000,17,08,00,000,23,27,00,000,35,16,00,000,33*72
$GPRMC,092852.000,V,,,,,,,310317,,,N*4E
$GPVTG,,T,,M,,N,,K,N*2C
$GPGGA,092853.000,,,,,0,00,,,M,,M,,0000*7D
$GPRMC,092853.000,V,,,,,,,310317,,,N*4F
$GPVTG,,T,,M,,N,,K,N*2C
$GPGGA,092854.000,,,,,0,00,,,M,,M,,0000*7A
$GPRMC,092854.000,V,,,,,,,310317,,,N*48
$GPVTG,,T,,M,,N,,K,N*2C
$GPGGA,092855.000,,,,,0,00,,,M,,M,,0000*7B
$GPRMC,092855.000,V,,,,,,,310317,,,N*49
$GPVTG,,T,,M,,N,,K,N*2C
$GPGGA,092856.000,,,,,0,00,,,M,,M,,0000*78
$GPRMC,092856.000,V,,,,,,,310317,,,N*4A
$GPVTG,,T,,M,,N,,K,N*2C
$GPGGA,092857.000,,,,,0,00,,,M,,M,,0000*79
$GPGSA,A,1,,,,,,,,,,,,,,,*1E
$GPGSV,1,1,04,15,00,000,16,08,00,000,23,27,00,000,30,16,00,000,25*71
$GPRMC,092857.000,V,,,,,,,310317,,,N*4B
$GPVTG,,T,,M,,N,,K,N*2C
$GPGGA,092858.000,,,,,0,00,,,M,,M,,0000*76
$GPRMC,092858.000,V,,,,,,,310317,,,N*44
$GPVTG,,T,,M,,N,,K,N*2C
$GPGGA,092859.000,,,,,0,00,,,M,,M,,0000*77
$GPRMC,092859.000,V,,,,,,,310317,,,N*45
$GPVTG,,T,,M,,N,,K,N*2C
$GPGGA,092900.000,,,,,0,00,,,M,,M,,0000*7A
$GPRMC,092900.000,V,,,,,,,310317,,,N*48
$GPVTG,,T,,M,,N,,K,N*2C
$GPGGA,092901.000,,,,,0,00,,,M,,M,,0000*7B
$GPRMC,092901.000,V,,,,,,,310317,,,N*49
$GPVTG,,T,,M,,N,,K,N*2C
$GPGGA,092902.000,,,,,0,00,,,M,,M,,0000*78
$GPGSA,A,1,,,,,,,,,,,,,,,*1E
$GPGSV,1,1,04,15,00,000,16,08,00,000,22,27,00,000,36,16,00,000,28*7B
$GPRMC,092902.000,V,,,,,,,310317,,,N*4A
$GPVTG,,T,,M,,N,,K,N*2C
$GPGGA,092903.000,,,,,0,00,,,M,,M,,0000*79
$GPRMC,092903.000,V,,,,,,,310317,,,N*4B
$GPVTG,,T,,M,,N,,K,N*2C
$GPGGA,092904.000,,,,,0,00,,,M,,M,,0000*7E
$GPRMC,092904.000,V,,,,,,,310317,,,N*4C
$GPVTG,,T,,M,,N,,K,N*2C
$GPGGA,092905.000,,,,,0,00,,,M,,M,,0000*7F
$GPRMC,092905.000,V,,,,,,,310317,,,N*4D
$GPVTG,,T,,M,,N,,K,N*2C
$GPGGA,092906.000,,,,,0,00,,,M,,M,,0000*7C
$GPRMC,092906.000,V,,,,,,,310317,,,N*4E
$GPVTG,,T,,M,,N,,K,N*2C
$GPGGA,092907.000,,,,,0,00,,,M,,M,,0000*7D
$GPGSA,A,1,,,,,,,,,,,,,,,*1E
$GPGSV,1,1,04,15,00,000,15,08,00,000,25,27,00,000,35,16,00,000,28*7C
$GPRMC,092907.000,V,,,,,,,310317,,,N*4F
$GPVTG,,T,,M,,N,,K,N*2C
$GPGGA,092908.000,,,,,0,00,,,M,,M,,0000*72
$GPRMC,092908.000,V,,,,,,,310317,,,N*40
$GPVTG,,T,,M,,N,,K,N*2C
$GPGGA,092909.000,,,,,0,00,,,M,,M,,0000*73
$GPRMC,092909.000,V,,,,,,,310317,,,N*41
$GPVTG,,T,,M,,N,,K,N*2C
$GPGGA,092910.000,,,,,0,00,,,M,,M,,0000*7B
$GPRMC,092910.000,V,,,,,,,310317,,,N*49
$GPVTG,,T,,M,,N,,K,N*2C
$GPGGA,092911.000,,,,,0,00,,,M,,M,,0000*7A
$GPRMC,092911.000,V,,,,,,,310317,,,N*48
$GPVTG,,T,,M,,N,,K,N*2C
$GPGGA,092912.000,,,,,0,00,,,M,,M,,0000*79
$GPGSA,A,1,,,,,,,,,,,,,,,*1E
$GPGSV,1,1,04,15,00,000,15,08,00,000,25,27,00,000,35,16,00,000,28*7C
$GPRMC,092912.000,V,,,,,,,310317,,,N*4B
$GPVTG,,T,,M,,N,,K,N*2C
$GPGGA,092913.000,,,,,0,00,,,M,,M,,0000*78
$GPRMC,092913.000,V,,,,,,,310317,,,N*4A
$GPVTG,,T,,M,,N,,K,N*2C
$GPGGA,092914.000,,,,,0,00,,,M,,M,,0000*7F
$GPRMC,092914.000,V,,,,,,,310317,,,N*4D
$GPVTG,,T,,M,,N,,K,N*2C
$GPGGA,092915.000,,,,,0,00,,,M,,M,,0000*7E
$GPRMC,092915.000,V,,,,,,,310317,,,N*4C
$GPVTG,,T,,M,,N,,K,N*2C
$GPGGA,092916.000,,,,,0,00,,,M,,M,,0000*7D
$GPRMC,092916.000,V,,,,,,,310317,,,N*4F
$GPVTG,,T,,M,,N,,K,N*2C
$GPGGA,092917.000,,,,,0,00,,,M,,M,,0000*7C
$GPGSA,A,1,,,,,,,,,,,,,,,*1E
$GPGSV,1,1,04,15,00,000,15,08,00,000,25,27,00,000,34,16,00,000,28*7D
$GPRMC,092917.000,V,,,,,,,310317,,,N*4E
$GPVTG,,T,,M,,N,,K,N*2C
$GPGGA,092918.000,,,,,0,00,,,M,,M,,0000*73
$GPRMC,092918.000,V,,,,,,,310317,,,N*41
$GPVTG,,T,,M,,N,,K,N*2C
$GPGGA,092919.000,,,,,0,00,,,M,,M,,0000*72
$GPRMC,092919.000,V,,,,,,,310317,,,N*40
$GPVTG,,T,,M,,N,,K,N*2C
$GPGGA,092920.000,,,,,0,00,,,M,,M,,0000*78
$GPRMC,092920.000,V,,,,,,,310317,,,N*4A
$GPVTG,,T,,M,,N,,K,N*2C
$GPGGA,092921.000,,,,,0,00,,,M,,M,,0000*79
$GPRMC,092921.000,V,,,,,,,310317,,,N*4B
$GPVTG,,T,,M,,N,,K,N*2C
$GPGGA,092922.000,,,,,0,00,,,M,,M,,0000*7A
$GPGSA,A,1,,,,,,,,,,,,,,,*1E
$GPGSV,1,1,04,15,00,000,16,08,00,000,25,27,00,000,33,16,00,000,28*79
$GPRMC,092922.000,V,,,,,,,310317,,,N*48
$GPVTG,,T,,M,,N,,K,N*2C
$GPGGA,092923.000,,,,,0,00,,,M,,M,,0000*7B
$GPRMC,092923.000,V,,,,,,,310317,,,N*49
$GPVTG,,T,,M,,N,,K,N*2C
$GPGGA,092924.000,,,,,0,00,,,M,,M,,0000*7C
$GPRMC,092924.000,V,,,,,,,310317,,,N*4E
$GPVTG,,T,,M,,N,,K,N*2C
$GPGGA,092925.000,,,,,0,00,,,M,,M,,0000*7D
$GPRMC,092925.000,V,,,,,,,310317,,,N*4F
$GPVTG,,T,,M,,N,,K,N*2C
$GPGGA,092926.000,,,,,0,00,,,M,,M,,0000*7E
$GPRMC,092926.000,V,,,,,,,310317,,,N*4C
$GPVTG,,T,,M,,N,,K,N*2C
$GPGGA,092927.000,,,,,0,00,,,M,,M,,0000*7F
$GPGSA,A,1,,,,,,,,,,,,,,,*1E
$GPGSV,1,1,04,15,00,000,16,08,00,000,25,27,00,000,33,16,00,000,28*79
$GPRMC,092927.000,V,,,,,,,310317,,,N*4D
$GPVTG,,T,,M,,N,,K,N*2C
$GPGGA,092928.000,,,,,0,00,,,M,,M,,0000*70
$GPRMC,092928.000,V,,,,,,,310317,,,N*42
$GPVTG,,T,,M,,N,,K,N*2C
$GPGGA,092929.000,,,,,0,00,,,M,,M,,0000*71
$GPRMC,092929.000,V,,,,,,,310317,,,N*43
$GPVTG,,T,,M,,N,,K,N*2C
$GPGGA,092930.000,,,,,0,00,,,M,,M,,0000*79
$GPRMC,092930.000,V,,,,,,,310317,,,N*4B
$GPVTG,,T,,M,,N,,K,N*2C
$GPGGA,092931.000,2117.35917,N,10615.35799,E,1,03,4.4,0.0,M,,M,,0000*4F
$GPGSA,A,2,08,27,16,,,,,,,,,,4.5,4.4,1.0*39
$GPGSV,4,1,13,15,-39,358,16,08,56,016,26,27,21,035,33,16,10,071,28*56
$GPGSV,4,2,13,30,19,321,,28,12,289,,23,28,195,,22,02,153,*7F
$GPGSV,4,3,13,17,02,227,,11,65,160,,09,39,239,,07,56,334,*70
$GPGSV,4,4,13,01,37,160,*49
$GPRMC,092931.000,A,2117.35917,N,10615.35799,E,1.55,178.19,310317,,,A*60
$GPVTG,178.19,T,,M,1.55,N,2.87,K,A*37
$GPGGA,092932.000,2117.35675,N,10615.36692,E,1,03,4.4,0.0,M,,M,,0000*4E
$GPRMC,092932.000,A,2117.35675,N,10615.36692,E,1.00,241.74,310317,,,A*63
$GPVTG,241.74,T,,M,1.00,N,1.85,K,A*34
$GPGGA,092933.000,2117.35087,N,10615.36745,E,1,03,4.4,0.0,M,,M,,0000*4F
$GPRMC,092933.000,A,2117.35087,N,10615.36745,E,2.21,177.80,310317,,,A*6F
$GPVTG,177.80,T,,M,2.21,N,4.09,K,A*38
$GPGGA,092934.000,2117.34994,N,10615.36638,E,1,03,4.4,0.0,M,,M,,0000*49
$GPRMC,092934.000,A,2117.34994,N,10615.36638,E,1.08,227.62,310317,,,A*6B
$GPVTG,227.62,T,,M,1.08,N,1.99,K,A*36
$GPGGA,092935.000,2117.35261,N,10615.36838,E,1,03,4.4,0.0,M,,M,,0000*46
$GPRMC,092935.000,A,2117.35261,N,10615.36838,E,3.41,34.38,310317,,,A*54
$GPVTG,34.38,T,,M,3.41,N,6.31,K,A*03
$GPGGA,092936.000,,,,,0,00,,,M,,M,,0000*7F
$GPGSA,A,1,,,,,,,,,,,,,,,*1E
$GPGSV,3,1,12,08,56,016,25,27,21,036,33,16,10,071,28,30,19,321,*71
$GPGSV,3,2,12,28,12,289,,23,28,195,,22,02,153,,17,02,227,*71
$GPGSV,3,3,12,11,65,160,,09,39,239,,07,56,334,,01,37,160,*77
$GPRMC,092936.000,V,,,,,,,310317,,,N*4D
$GPVTG,,T,,M,,N,,K,N*2C
$GPGGA,092937.000,,,,,0,00,,,M,,M,,0000*7E
$GPRMC,092937.000,V,,,,,,,310317,,,N*4C
$GPVTG,,T,,M,,N,,K,N*2C
$GPGGA,092938.000,,,,,0,00,,,M,,M,,0000*71
$GPRMC,092938.000,V,,,,,,,310317,,,N*43
$GPVTG,,T,,M,,N,,K,N*2C
$GPGGA,092939.000,,,,,0,00,,,M,,M,,0000*70
$GPRMC,092939.000,V,,,,,,,310317,,,N*42
$GPVTG,,T,,M,,N,,K,N*2C
$GPGGA,092940.000,,,,,0,00,,,M,,M,,0000*7E
$GPRMC,092940.000,V,,,,,,,310317,,,N*4C
$GPVTG,,T,,M,,N,,K,N*2C
$GPGGA,092941.000,,,,,0,00,,,M,,M,,0000*7F
$GPGSA,A,1,,,,,,,,,,,,,,,*1E
$GPGSV,3,1,12,08,56,016,25,27,21,036,33,16,10,071,28,30,19,321,*71
$GPGSV,3,2,12,28,12,289,,23,27,195,,22,02,153,,17,02,227,*7E
$GPGSV,3,3,12,11,65,160,,09,39,239,,07,56,334,,01,37,160,*77
$GPRMC,092941.000,V,,,,,,,310317,,,N*4D
$GPVTG,,T,,M,,N,,K,N*2C
$GPGGA,092942.000,,,,,0,00,,,M,,M,,0000*7C
$GPRMC,092942.000,V,,,,,,,310317,,,N*4E
$GPVTG,,T,,M,,N,,K,N*2C
$GPGGA,092943.000,,,,,0,00,,,M,,M,,0000*7D
$GPRMC,092943.000,V,,,,,,,310317,,,N*4F
$GPVTG,,T,,M,,N,,K,N*2C
$GPGGA,092944.000,,,,,0,00,,,M,,M,,0000*7A
$GPRMC,092944.000,V,,,,,,,310317,,,N*48
$GPVTG,,T,,M,,N,,K,N*2C
$GPGGA,092945.000,,,,,0,00,,,M,,M,,0000*7B
$GPRMC,092945.000,V,,,,,,,310317,,,N*49
$GPVTG,,T,,M,,N,,K,N*2C
$GPGGA,092946.000,,,,,0,00,,,M,,M,,0000*78
$GPGSA,A,1,,,,,,,,,,,,,,,*1E
$GPGSV,3,1,12,08,56,017,25,27,21,036,33,16,10,071,27,30,19,321,*7F
$GPGSV,3,2,12,28,12,289,,23,27,195,,22,02,153,,17,02,227,*7E
$GPGSV,3,3,12,11,65,160,,09,39,239,,07,56,334,,01,37,160,*77
$GPRMC,092946.000,V,,,,,,,310317,,,N*4A
$GPVTG,,T,,M,,N,,K,N*2C
$GPGGA,092947.000,,,,,0,00,,,M,,M,,0000*79
$GPRMC,092947.000,V,,,,,,,310317,,,N*4B
$GPVTG,,T,,M,,N,,K,N*2C
$GPGGA,092948.000,,,,,0,00,,,M,,M,,0000*76
$GPRMC,092948.000,V,,,,,,,310317,,,N*44
$GPVTG,,T,,M,,N,,K,N*2C
$GPGGA,092949.000,,,,,0,00,,,M,,M,,0000*77
$GPRMC,092949.000,V,,,,,,,310317,,,N*45
$GPVTG,,T,,M,,N,,K,N*2C
$GPGGA,092950.000,,,,,0,00,,,M,,M,,0000*7F
$GPRMC,092950.000,V,,,,,,,310317,,,N*4D
$GPVTG,,T,,M,,N,,K,N*2C
$GPGGA,092951.000,,,,,0,00,,,M,,M,,0000*7E
$GPGSA,A,1,,,,,,,,,,,,,,,*1E
$GPGSV,3,1,12,08,56,017,25,27,21,036,33,16,10,071,27,30,19,321,*7F
$GPGSV,3,2,12,28,12,289,,23,27,195,,22,02,153,,17,02,227,*7E
$GPGSV,3,3,12,11,65,160,,09,39,239,,07,57,335,,01,37,160,*77
$GPRMC,092951.000,V,,,,,,,310317,,,N*4C
$GPVTG,,T,,M,,N,,K,N*2C
$GPGGA,092952.000,,,,,0,00,,,M,,M,,0000*7D
$GPRMC,092952.000,V,,,,,,,310317,,,N*4F
$GPVTG,,T,,M,,N,,K,N*2C
$GPGGA,092953.000,,,,,0,00,,,M,,M,,0000*7C
$GPRMC,092953.000,V,,,,,,,310317,,,N*4E
$GPVTG,,T,,M,,N,,K,N*2C
$GPGGA,092954.000,,,,,0,00,,,M,,M,,0000*7B
$GPRMC,092954.000,V,,,,,,,310317,,,N*49
$GPVTG,,T,,M,,N,,K,N*2C
$GPGGA,092955.000,,,,,0,00,,,M,,M,,0000*7A
$GPRMC,092955.000,V,,,,,,,310317,,,N*48
$GPVTG,,T,,M,,N,,K,N*2C
$GPGGA,092956.000,,,,,0,00,,,M,,M,,0000*79
$GPGSA,A,1,,,,,,,,,,,,,,,*1E
$GPGSV,3,1,12,08,56,017,25,27,21,036,33,16,10,071,27,30,19,321,*7F
$GPGSV,3,2,12,28,12,289,,23,27,195,,22,02,153,,17,02,227,*7E
$GPGSV,3,3,12,11,65,160,,09,39,239,,07,57,335,,01,37,160,*77
$GPRMC,092956.000,V,,,,,,,310317,,,N*4B
$GPVTG,,T,,M,,N,,K,N*2C
$GPGGA,092957.000,,,,,0,00,,,M,,M,,0000*78
$GPRMC,092957.000,V,,,,,,,310317,,,N*4A
$GPVTG,,T,,M,,N,,K,N*2C
$GPGGA,092958.000,,,,,0,00,,,M,,M,,0000*77
$GPRMC,092958.000,V,,,,,,,310317,,,N*45
$GPVTG,,T,,M,,N,,K,N*2C
$GPGGA,092959.000,,,,,0,00,,,M,,M,,0000*76
$GPRMC,092959.000,V,,,,,,,310317,,,N*44
$GPVTG,,T,,M,,N,,K,N*2C
$GPGGA,093000.000,,,,,0,00,,,M,,M,,0000*72
$GPRMC,093000.000,V,,,,,,,310317,,,N*40
$GPVTG,,T,,M,,N,,K,N*2C
$GPGGA,093001.000,,,,,0,00,,,M,,M,,0000*73
$GPGSA,A,1,,,,,,,,,,,,,,,*1E
$GPGSV,3,1,12,08,56,017,25,27,21,036,34,16,10,071,27,30,19,321,*78
$GPGSV,3,2,12,28,12,289,,23,27,195,,22,02,153,,17,02,227,*7E
$GPGSV,3,3,12,11,65,160,,09,39,239,,07,57,335,,01,37,160,*77
$GPRMC,093001.000,V,,,,,,,310317,,,N*41
$GPVTG,,T,,M,,N,,K,N*2C
$GPGGA,093002.000,,,,,0,00,,,M,,M,,0000*70
$GPRMC,093002.000,V,,,,,,,310317,,,N*42
$GPVTG,,T,,M,,N,,K,N*2C
$GPGGA,093003.000,,,,,0,00,,,M,,M,,0000*71
$GPRMC,093003.000,V,,,,,,,310317,,,N*43
$GPVTG,,T,,M,,N,,K,N*2C
$GPGGA,093004.000,,,,,0,00,,,M,,M,,0000*76
$GPRMC,093004.000,V,,,,,,,310317,,,N*44
$GPVTG,,T,,M,,N,,K,N*2C
$GPGGA,093005.000,,,,,0,00,,,M,,M,,0000*77
$GPRMC,093005.000,V,,,,,,,310317,,,N*45
$GPVTG,,T,,M,,N,,K,N*2C
$GPGGA,093006.000,,,,,0,00,,,M,,M,,0000*74
$GPGSA,A,1,,,,,,,,,,,,,,,*1E
$GPGSV,3,1,12,08,56,017,25,27,21,036,34,16,10,071,27,30,19,321,*78
$GPGSV,3,2,12,28,12,289,,23,27,195,,22,02,153,,17,02,227,*7E
$GPGSV,3,3,12,11,65,160,,09,39,239,,07,57,335,,01,37,160,*77
$GPRMC,093006.000,V,,,,,,,310317,,,N*46
$GPVTG,,T,,M,,N,,K,N*2C
$GPGGA,093007.000,,,,,0,00,,,M,,M,,0000*75
$GPRMC,093007.000,V,,,,,,,310317,,,N*47
$GPVTG,,T,,M,,N,,K,N*2C
$GPGGA,093008.000,,,,,0,00,,,M,,M,,0000*7A
$GPRMC,093008.000,V,,,,,,,310317,,,N*48
$GPVTG,,T,,M,,N,,K,N*2C
$GPGGA,093009.000,,,,,0,00,,,M,,M,,0000*7B
$GPRMC,093009.000,V,,,,,,,310317,,,N*49
$GPVTG,,T,,M,,N,,K,N*2C
$GPGGA,093010.000,,,,,0,00,,,M,,M,,0000*73
$GPRMC,093010.000,V,,,,,,,310317,,,N*41
$GPVTG,,T,,M,,N,,K,N*2C
$GPGGA,093011.000,,,,,0,00,,,M,,M,,0000*72
$GPGSA,A,1,,,,,,,,,,,,,,,*1E
$GPGSV,3,1,12,08,56,017,25,27,21,036,34,16,10,071,27,30,19,321,*78
$GPGSV,3,2,12,28,12,289,,23,27,195,,22,02,153,,17,02,227,*7E
$GPGSV,3,3,12,11,65,160,,09,39,239,,07,57,335,,01,37,160,*77
$GPRMC,093011.000,V,,,,,,,310317,,,N*40
$GPVTG,,T,,M,,N,,K,N*2C
$GPGGA,093012.000,,,,,0,00,,,M,,M,,0000*71
$GPRMC,093012.000,V,,,,,,,310317,,,N*43
$GPVTG,,T,,M,,N,,K,N*2C
$GPGGA,093013.000,,,,,0,00,,,M,,M,,0000*70
$GPRMC,093013.000,V,,,,,,,310317,,,N*42
$GPVTG,,T,,M,,N,,K,N*2C
$GPGGA,093014.000,,,,,0,00,,,M,,M,,0000*77
$GPRMC,093014.000,V,,,,,,,310317,,,N*45
$GPVTG,,T,,M,,N,,K,N*2C
$GPGGA,093015.000,,,,,0,00,,,M,,M,,0000*76
$GPRMC,093015.000,V,,,,,,,310317,,,N*44
$GPVTG,,T,,M,,N,,K,N*2C
$GPGGA,093016.000,,,,,0,00,,,M,,M,,0000*75
$GPGSA,A,1,,,,,,,,,,,,,,,*1E
$GPGSV,3,1,12,08,56,017,25,27,21,036,34,16,10,071,27,30,19,321,*78
$GPGSV,3,2,12,28,12,289,,23,27,195,,22,02,153,,17,02,227,*7E
$GPGSV,3,3,12,11,65,159,,09,39,239,,07,57,335,,01,37,160,*7D
$GPRMC,093016.000,V,,,,,,,310317,,,N*47
$GPVTG,,T,,M,,N,,K,N*2C
$GPGGA,093017.000,,,,,0,00,,,M,,M,,0000*74
$GPRMC,093017.000,V,,,,,,,310317,,,N*46
$GPVTG,,T,,M,,N,,K,N*2C
$GPGGA,093018.000,,,,,0,00,,,M,,M,,0000*7B
$GPRMC,093018.000,V,,,,,,,310317,,,N*49
$GPVTG,,T,,M,,N,,K,N*2C
$GPGGA,093019.000,,,,,0,00,,,M,,M,,0000*7A
$GPRMC,093019.000,V,,,,,,,310317,,,N*48
$GPVTG,,T,,M,,N,,K,N*2C
$GPGGA,093020.000,,,,,0,00,,,M,,M,,0000*70
$GPRMC,093020.000,V,,,,,,,310317,,,N*42
$GPVTG,,T,,M,,N,,K,N*2C
$GPGGA,093021.000,,,,,0,00,,,M,,M,,0000*71
$GPGSA,A,1,,,,,,,,,,,,,,,*1E
$GPGSV,3,1,12,08,56,017,25,27,21,036,34,16,10,071,27,30,19,321,*78
$GPGSV,3,2,12,28,12,289,,23,27,195,,22,02,153,,17,02,227,*7E
$GPGSV,3,3,12,11,65,159,,09,39,239,,07,57,335,,01,37,160,*7D
$GPRMC,093021.000,V,,,,,,,310317,,,N*43
$GPVTG,,T,,M,,N,,K,N*2C
$GPGGA,093022.000,,,,,0,00,,,M,,M,,0000*72
$GPRMC,093022.000,V,,,,,,,310317,,,N*40
$GPVTG,,T,,M,,N,,K,N*2C
$GPGGA,093023.000,,,,,0,00,,,M,,M,,0000*73
$GPRMC,093023.000,V,,,,,,,310317,,,N*41
$GPVTG,,T,,M,,N,,K,N*2C
$GPGGA,093024.000,,,,,0,00,,,M,,M,,0000*74
$GPRMC,093024.000,V,,,,,,,310317,,,N*46
$GPVTG,,T,,M,,N,,K,N*2C
$GPGGA,093025.000,,,,,0,00,,,M,,M,,0000*75
$GPRMC,093025.000,V,,,,,,,310317,,,N*47
$GPVTG,,T,,M,,N,,K,N*2C
$GPGGA,093026.000,,,,,0,00,,,M,,M,,0000*76
$GPGSA,A,1,,,,,,,,,,,,,,,*1E
$GPGSV,3,1,12,08,55,017,25,27,21,036,34,16,10,071,27,30,19,321,*7B
$GPGSV,3,2,12,28,12,289,,23,27,195,,22,02,153,,17,02,227,*7E
$GPGSV,3,3,12,11,65,159,,09,39,239,,07,57,335,,01,38,160,*72
$GPRMC,093026.000,V,,,,,,,310317,,,N*44
$GPVTG,,T,,M,,N,,K,N*2C
$GPGGA,093027.000,,,,,0,00,,,M,,M,,0000*77
$GPRMC,093027.000,V,,,,,,,310317,,,N*45
$GPVTG,,T,,M,,N,,K,N*2C
$GPGGA,093028.000,,,,,0,00,,,M,,M,,0000*78
$GPRMC,093028.000,V,,,,,,,310317,,,N*4A
$GPVTG,,T,,M,,N,,K,N*2C
$GPGGA,093029.000,,,,,0,00,,,M,,M,,0000*79
$GPRMC,093029.000,V,,,,,,,310317,,,N*4B
$GPVTG,,T,,M,,N,,K,N*2C
$GPGGA,093030.000,,,,,0,00,,,M,,M,,0000*71
$GPRMC,093030.000,V,,,,,,,310317,,,N*43
$GPVTG,,T,,M,,N,,K,N*2C
$GPGGA,093031.000,,,,,0,00,,,M,,M,,0000*70
$GPGSA,A,1,,,,,,,,,,,,,,,*1E
$GPGSV,3,1,12,08,55,017,25,27,21,036,34,16,10,071,27,30,19,321,*7B
$GPGSV,3,2,12,28,12,289,,23,27,195,,22,02,153,,17,02,227,*7E
$GPGSV,3,3,12,11,65,159,,09,39,239,,07,57,335,,01,38,160,*72
$GPRMC,093031.000,V,,,,,,,310317,,,N*42
$GPVTG,,T,,M,,N,,K,N*2C
$GPGGA,093032.000,,,,,0,00,,,M,,M,,0000*73
$GPRMC,093032.000,V,,,,,,,310317,,,N*41
$GPVTG,,T,,M,,N,,K,N*2C
$GPGGA,093033.000,2117.34799,N,10615.36488,E,1,03,4.4,0.0,M,,M,,0000*4C
$GPGSA,A,2,08,27,16,,,,,,,,,,4.5,4.4,1.0*39
$GPGSV,3,1,12,08,55,017,26,27,21,036,34,16,10,071,27,30,19,321,*78
$GPGSV,3,2,12,28,12,289,,23,27,195,,22,02,153,,17,02,227,*7E
$GPGSV,3,3,12,11,65,159,,09,39,239,,07,57,335,,01,38,160,*72
$GPRMC,093033.000,A,2117.34799,N,10615.36488,E,0.94,264.86,310317,,,A*67
$GPVTG,264.86,T,,M,0.94,N,1.74,K,A*3C
$GPGGA,093034.000,2117.35496,N,10615.36717,E,1,03,4.4,0.0,M,,M,,0000*43
$GPRMC,093034.000,A,2117.35496,N,10615.36717,E,2.32,238.11,310317,,,A*61
$GPVTG,238.11,T,,M,2.32,N,4.30,K,A*30
$GPGGA,093035.000,2117.35619,N,10615.36622,E,1,03,4.4,0.0,M,,M,,0000*40
$GPRMC,093035.000,A,2117.35619,N,10615.36622,E,2.64,231.08,310317,,,A*60
$GPVTG,231.08,T,,M,2.64,N,4.89,K,A*30
$GPGGA,093036.000,2117.35327,N,10615.36576,E,1,03,4.4,0.0,M,,M,,0000*49
$GPRMC,093036.000,A,2117.35327,N,10615.36576,E,1.50,224.97,310317,,,A*6F
$GPVTG,224.97,T,,M,1.50,N,2.78,K,A*3E
$GPGGA,093037.000,,,,,0,00,,,M,,M,,0000*76
$GPRMC,093037.000,V,,,,,,,310317,,,N*44
$GPVTG,,T,,M,,N,,K,N*2C
$GPGGA,093038.000,,,,,0,00,,,M,,M,,0000*79
$GPGSA,A,1,,,,,,,,,,,,,,,*1E
$GPGSV,3,1,12,08,55,017,25,27,21,036,34,16,10,071,27,30,19,321,*7B
$GPGSV,3,2,12,28,12,289,,23,27,195,,22,02,153,,17,02,227,*7E
$GPGSV,3,3,12,11,66,159,,09,39,239,,07,57,335,,01,38,160,*71
$GPRMC,093038.000,V,,,,,,,310317,,,N*4B
$GPVTG,,T,,M,,N,,K,N*2C
$GPGGA,093039.000,,,,,0,00,,,M,,M,,0000*78
$GPRMC,093039.000,V,,,,,,,310317,,,N*4A
$GPVTG,,T,,M,,N,,K,N*2C
$GPGGA,093040.000,2117.35414,N,10615.36798,E,1,03,4.4,0.0,M,,M,,0000*4D
$GPGSA,A,2,08,27,16,,,,,,,,,,4.5,4.4,1.0*39
$GPGSV,3,1,12,08,55,017,26,27,21,036,34,16,10,071,27,30,19,321,*78
$GPGSV,3,2,12,28,12,289,,23,27,195,,22,02,153,,17,02,227,*7E
$GPGSV,3,3,12,11,66,159,,09,39,239,,07,57,335,,01,38,160,*71
$GPRMC,093040.000,A,2117.35414,N,10615.36798,E,1.67,339.05,310317,,,A*69
$GPVTG,339.05,T,,M,1.67,N,3.10,K,A*33
$GPGGA,093041.000,2117.35758,N,10615.36819,E,1,03,4.4,0.0,M,,M,,0000*41
$GPRMC,093041.000,A,2117.35758,N,10615.36819,E,0.82,7.62,310317,,,A*60
$GPVTG,7.62,T,,M,0.82,N,1.52,K,A*32
$GPGGA,093042.000,2117.36077,N,10615.36848,E,1,03,4.4,0.0,M,,M,,0000*4F
$GPRMC,093042.000,A,2117.36077,N,10615.36848,E,1.10,269.41,310317,,,A*6F
$GPVTG,269.41,T,,M,1.10,N,2.04,K,A*33
$GPGGA,093043.000,2117.35476,N,10615.36670,E,1,03,4.4,0.0,M,,M,,0000*4D
$GPRMC,093043.000,A,2117.35476,N,10615.36670,E,1.94,210.03,310317,,,A*69
$GPVTG,210.03,T,,M,1.94,N,3.59,K,A*3E
$GPGGA,093044.000,2117.35428,N,10615.36714,E,1,03,4.4,0.0,M,,M,,0000*42
$GPRMC,093044.000,A,2117.35428,N,10615.36714,E,1.00,79.53,310317,,,A*53
$GPVTG,79.53,T,,M,1.00,N,1.85,K,A*08
$GPGGA,093045.000,2117.35533,N,10615.36824,E,1,03,4.4,0.0,M,,M,,0000*44
$GPGSA,A,2,08,27,16,,,,,,,,,,4.5,4.4,1.0*39
$GPGSV,3,1,12,08,55,017,26,27,21,036,34,16,10,071,27,30,19,321,*78
$GPGSV,3,2,12,28,12,289,,23,27,195,,22,02,153,,17,02,227,*7E
$GPGSV,3,3,12,11,66,159,,09,39,239,,07,57,335,,01,38,160,*71
$GPRMC,093045.000,A,2117.35533,N,10615.36824,E,2.00,90.31,310317,,,A*55
$GPVTG,90.31,T,,M,2.00,N,3.70,K,A*00
$GPGGA,093046.000,2117.35555,N,10615.36870,E,1,03,4.4,0.0,M,,M,,0000*46
$GPRMC,093046.000,A,2117.35555,N,10615.36870,E,0.92,159.52,310317,,,A*6F
$GPVTG,159.52,T,,M,0.92,N,1.70,K,A*3A
$GPGGA,093047.000,2117.35341,N,10615.36728,E,1,03,4.4,0.0,M,,M,,0000*46
$GPRMC,093047.000,A,2117.35341,N,10615.36728,E,0.91,79.22,310317,,,A*58
$GPVTG,79.22,T,,M,0.91,N,1.69,K,A*05
$GPGGA,093048.000,2117.35755,N,10615.36824,E,1,03,4.4,0.0,M,,M,,0000*4B
$GPRMC,093048.000,A,2117.35755,N,10615.36824,E,1.09,249.27,310317,,,A*61
$GPVTG,249.27,T,,M,1.09,N,2.03,K,A*3E
$GPGGA,093049.000,2117.35392,N,10615.36713,E,1,03,4.4,0.0,M,,M,,0000*4E
$GPRMC,093049.000,A,2117.35392,N,10615.36713,E,0.57,304.35,310317,,,A*65
$GPVTG,304.35,T,,M,0.57,N,1.05,K,A*3A
$GPGGA,093050.000,2117.35764,N,10615.36775,E,1,03,4.4,0.0,M,,M,,0000*4B
$GPGSA,A,2,08,27,16,,,,,,,,,,4.5,4.4,1.0*39
$GPGSV,3,1,12,08,55,017,26,27,21,036,34,16,10,071,27,30,19,321,*78
$GPGSV,3,2,12,28,12,289,,23,27,195,,22,02,153,,17,02,227,*7E
$GPGSV,3,3,12,11,66,159,,09,39,239,,07,57,335,,01,38,160,*71
$GPRMC,093050.000,A,2117.35764,N,10615.36775,E,0.79,229.53,310317,,,A*62
$GPVTG,229.53,T,,M,0.79,N,1.45,K,A*3C
$GPGGA,093051.000,2117.35569,N,10615.36674,E,1,03,4.4,0.0,M,,M,,0000*45
$GPRMC,093051.000,A,2117.35569,N,10615.36674,E,2.98,200.71,310317,,,A*6A
$GPVTG,200.71,T,,M,2.98,N,5.53,K,A*39
$GPGGA,093052.000,2117.35497,N,10615.36597,E,1,03,4.4,0.0,M,,M,,0000*48
$GPRMC,093052.000,A,2117.35497,N,10615.36597,E,1.28,64.17,310317,,,A*5F
$GPVTG,64.17,T,,M,1.28,N,2.37,K,A*04
$GPGGA,093053.000,2117.35698,N,10615.36678,E,1,03,4.4,0.0,M,,M,,0000*46
$GPRMC,093053.000,A,2117.35698,N,10615.36678,E,1.34,354.96,310317,,,A*65
$GPVTG,354.96,T,,M,1.34,N,2.47,K,A*37
$GPGGA,093054.000,2117.35434,N,10615.36657,E,1,03,4.4,0.0,M,,M,,0000*48
$GPRMC,093054.000,A,2117.35434,N,10615.36657,E,1.14,338.23,310317,,,A*6D
$GPVTG,338.23,T,,M,1.14,N,2.12,K,A*31
$GPGGA,093055.000,2117.35775,N,10615.36889,E,1,03,4.4,-0.0,M,,M,,0000*6F
$GPGSA,A,2,08,27,16,,,,,,,,,,4.5,4.4,1.0*39
$GPGSV,3,1,12,08,55,017,26,27,21,036,34,16,10,071,27,30,19,321,*78
$GPGSV,3,2,12,28,12,289,,23,27,195,,22,02,153,,17,02,227,*7E
$GPGSV,3,3,12,11,66,159,,09,39,239,,07,57,335,,01,38,160,*71
$GPRMC,093055.000,A,2117.35775,N,10615.36889,E,0.76,116.26,310317,,,A*69
$GPVTG,116.26,T,,M,0.76,N,1.40,K,A*3B
$GPGGA,093056.000,2117.35528,N,10615.36740,E,1,03,4.4,-0.0,M,,M,,0000*6C
$GPRMC,093056.000,A,2117.35528,N,10615.36740,E,1.67,134.13,310317,,,A*6D
$GPVTG,134.13,T,,M,1.67,N,3.08,K,A*32
$GPGGA,093057.000,2117.35111,N,10615.36678,E,1,03,4.4,0.0,M,,M,,0000*44
$GPRMC,093057.000,A,2117.35111,N,10615.36678,E,1.72,214.03,310317,,,A*6C
$GPVTG,214.03,T,,M,1.72,N,3.19,K,A*36
$GPGGA,093058.000,2117.35077,N,10615.36789,E,1,03,4.4,0.0,M,,M,,0000*45
$GPRMC,093058.000,A,2117.35077,N,10615.36789,E,0.57,310.38,310317,,,A*66
$GPVTG,310.38,T,,M,0.57,N,1.05,K,A*32
$GPGGA,093059.000,2117.35029,N,10615.36749,E,1,03,4.4,0.0,M,,M,,0000*43
$GPRMC,093059.000,A,2117.35029,N,10615.36749,E,0.90,271.97,310317,,,A*68
$GPVTG,271.97,T,,M,0.90,N,1.67,K,A*3E
$GPGGA,093100.000,2117.35550,N,10615.36831,E,1,03,4.4,0.0,M,,M,,0000*45
$GPGSA,A,2,08,27,16,,,,,,,,,,4.5,4.4,1.0*39
$GPGSV,3,1,12,08,55,017,26,27,20,036,35,16,10,071,26,30,19,321,*79
$GPGSV,3,2,12,28,12,289,,23,27,195,,22,02,153,,17,02,227,*7E
$GPGSV,3,3,12,11,66,159,,09,39,239,,07,57,335,,01,38,160,*71
$GPRMC,093100.000,A,2117.35550,N,10615.36831,E,1.80,240.50,310317,,,A*67
$GPVTG,240.50,T,,M,1.80,N,3.34,K,A*33
$GPGGA,093101.000,2117.35088,N,10615.36639,E,1,03,4.4,0.0,M,,M,,0000*42
$GPRMC,093101.000,A,2117.35088,N,10615.36639,E,1.79,266.24,310317,,,A*61
$GPVTG,266.24,T,,M,1.79,N,3.31,K,A*37
$GPGGA,093102.000,2117.35240,N,10615.36605,E,1,03,4.4,0.0,M,,M,,0000*48
$GPRMC,093102.000,A,2117.35240,N,10615.36605,E,1.31,239.26,310317,,,A*6F
$GPVTG,239.26,T,,M,1.31,N,2.42,K,A*36
$GPGGA,093103.000,2117.35856,N,10615.36844,E,1,03,4.4,0.0,M,,M,,0000*4F
$GPRMC,093103.000,A,2117.35856,N,10615.36844,E,1.74,342.94,310317,,,A*6D
$GPVTG,342.94,T,,M,1.74,N,3.23,K,A*35
$GPGGA,093104.000,2117.35615,N,10615.36559,E,1,03,4.4,0.0,M,,M,,0000*40
$GPRMC,093104.000,A,2117.35615,N,10615.36559,E,0.64,236.28,310317,,,A*67
$GPVTG,236.28,T,,M,0.64,N,1.19,K,A*3B
$GPGGA,093105.000,2117.34852,N,10615.36336,E,1,03,4.4,0.0,M,,M,,0000*42
$GPGSA,A,2,08,27,16,,,,,,,,,,4.5,4.4,1.0*39
$GPGSV,3,1,12,08,55,017,26,27,20,036,35,16,10,071,26,30,19,321,*79
$GPGSV,3,2,12,28,12,289,,23,27,195,,22,02,153,,17,02,227,*7E
$GPGSV,3,3,12,11,66,159,,09,38,239,,07,57,335,,01,38,160,*70
$GPRMC,093105.000,A,2117.34852,N,10615.36336,E,1.36,148.99,310317,,,A*63
$GPVTG,148.99,T,,M,1.36,N,2.51,K,A*32
$GPGGA,093106.000,2117.35142,N,10615.36576,E,1,03,4.4,0.0,M,,M,,0000*4A
$GPRMC,093106.000,A,2117.35142,N,10615.36576,E,0.72,19.58,310317,,,A*52
$GPVTG,19.58,T,,M,0.72,N,1.33,K,A*0C
$GPGGA,093107.000,2117.34820,N,10615.36463,E,1,03,4.4,0.0,M,,M,,0000*42
$GPRMC,093107.000,A,2117.34820,N,10615.36463,E,2.52,84.40,310317,,,A*57
$GPVTG,84.40,T,,M,2.52,N,4.66,K,A*04
$GPGGA,093108.000,2117.35724,N,10615.36663,E,1,03,4.4,0.0,M,,M,,0000*45
$GPRMC,093108.000,A,2117.35724,N,10615.36663,E,0.46,198.98,310317,,,A*6E
$GPVTG,198.98,T,,M,0.46,N,0.85,K,A*33
$GPGGA,093109.000,2117.35545,N,10615.36641,E,1,03,4.4,0.0,M,,M,,0000*41
$GPRMC,093109.000,A,2117.35545,N,10615.36641,E,0.72,279.09,310317,,,A*69
$GPVTG,279.09,T,,M,0.72,N,1.33,K,A*3C
$GPGGA,093110.000,2117.35444,N,10615.36501,E,1,03,4.4,0.0,M,,M,,0000*4E
$GPGSA,A,2,08,27,16,,,,,,,,,,4.5,4.4,1.0*39
$GPGSV,3,1,12,08,55,017,26,27,20,036,33,16,10,071,24,30,19,321,*7D
$GPGSV,3,2,12,28,12,289,,23,27,195,,22,02,153,,17,02,227,*7E
$GPGSV,3,3,12,11,66,159,,09,38,238,,07,57,335,,01,38,160,*71
$GPRMC,093110.000,A,2117.35444,N,10615.36501,E,3.06,181.72,310317,,,A*6E
$GPVTG,181.72,T,,M,3.06,N,5.66,K,A*30
$GPGGA,093111.000,2117.35074,N,10615.36364,E,1,03,4.4,0.0,M,,M,,0000*4D
$GPRMC,093111.000,A,2117.35074,N,10615.36364,E,2.00,217.82,310317,,,A*69
$GPVTG,217.82,T,,M,2.00,N,3.71,K,A*34
$GPGGA,093112.000,2117.35094,N,10615.36432,E,1,03,4.4,0.0,M,,M,,0000*44
$GPRMC,093112.000,A,2117.35094,N,10615.36432,E,1.91,350.12,310317,,,A*60
$GPVTG,350.12,T,,M,1.91,N,3.54,K,A*33
$GPGGA,093113.000,2117.34866,N,10615.36342,E,1,03,4.4,-0.0,M,,M,,0000*6C
$GPRMC,093113.000,A,2117.34866,N,10615.36342,E,0.29,93.11,310317,,,A*58
$GPVTG,93.11,T,,M,0.29,N,0.53,K,A*0A
$GPGGA,093114.000,2117.35030,N,10615.36418,E,1,03,4.4,-0.0,M,,M,,0000*69
$GPRMC,093114.000,A,2117.35030,N,10615.36418,E,2.94,185.28,310317,,,A*65
$GPVTG,185.28,T,,M,2.94,N,5.45,K,A*30
$GPGGA,093115.000,2117.35168,N,10615.36544,E,1,03,4.4,-0.0,M,,M,,0000*6C
$GPGSA,A,2,08,27,16,,,,,,,,,,4.5,4.4,1.0*39
$GPGSV,3,1,12,08,55,017,26,27,20,036,33,16,10,071,24,30,19,321,*7D
$GPGSV,3,2,12,28,12,289,,23,27,195,,22,02,153,,17,02,227,*7E
$GPGSV,3,3,12,11,66,159,,09,38,238,,07,57,335,,01,38,160,*71
$GPRMC,093115.000,A,2117.35168,N,10615.36544,E,0.74,23.18,310317,,,A*52
$GPVTG,23.18,T,,M,0.74,N,1.36,K,A*02
$GPGGA,093116.000,2117.35188,N,10615.36539,E,1,03,4.4,0.0,M,,M,,0000*46
$GPRMC,093116.000,A,2117.35188,N,10615.36539,E,0.34,289.53,310317,,,A*6C
$GPVTG,289.53,T,,M,0.34,N,0.62,K,A*3B
$GPGGA,093117.000,2117.35274,N,10615.36661,E,1,03,4.4,0.0,M,,M,,0000*49
$GPRMC,093117.000,A,2117.35274,N,10615.36661,E,1.54,178.72,310317,,,A*6A
$GPVTG,178.72,T,,M,1.54,N,2.84,K,A*38
$GPGGA,093118.000,2117.35496,N,10615.36801,E,1,03,4.4,-0.0,M,,M,,0000*69
$GPRMC,093118.000,A,2117.35496,N,10615.36801,E,4.04,194.31,310317,,,A*62
$GPVTG,194.31,T,,M,4.04,N,7.49,K,A*39
$GPGGA,093119.000,2117.35342,N,10615.36792,E,1,03,4.4,-0.0,M,,M,,0000*63
$GPRMC,093119.000,A,2117.35342,N,10615.36792,E,1.66,218.29,310317,,,A*67
$GPVTG,218.29,T,,M,1.66,N,3.08,K,A*37
$GPGGA,093120.000,,,,,0,00,,,M,,M,,0000*71
$GPGSA,A,1,,,,,,,,,,,,,,,*1E
$GPGSV,3,1,12,08,55,017,25,27,20,036,34,16,10,071,24,30,19,321,*79
$GPGSV,3,2,12,28,12,290,,23,27,195,,22,02,153,,17,02,227,*76
$GPGSV,3,3,12,11,66,159,,09,38,238,,07,57,335,,01,38,160,*71
$GPRMC,093120.000,V,,,,,,,310317,,,N*43
$GPVTG,,T,,M,,N,,K,N*2C
$GPGGA,093121.000,,,,,0,00,,,M,,M,,0000*70
$GPRMC,093121.000,V,,,,,,,310317,,,N*42
$GPVTG,,T,,M,,N,,K,N*2C
$GPGGA,093122.000,,,,,0,00,,,M,,M,,0000*73
$GPRMC,093122.000,V,,,,,,,310317,,,N*41
$GPVTG,,T,,M,,N,,K,N*2C
$GPGGA,093123.000,2117.35075,N,10615.36733,E,1,03,4.4,-0.0,M,,M,,0000*66
$GPGSA,A,2,08,27,16,,,,,,,,,,4.5,4.4,1.0*39
$GPGSV,3,1,12,08,55,017,26,27,20,036,34,16,10,071,24,30,19,321,*7A
$GPGSV,3,2,12,28,12,290,,23,27,195,,22,02,153,,17,02,227,*76
$GPGSV,3,3,12,11,66,159,,09,38,238,,07,57,335,,01,38,160,*71
$GPRMC,093123.000,A,2117.35075,N,10615.36733,E,2.12,120.80,310317,,,A*69
$GPVTG,120.80,T,,M,2.12,N,3.93,K,A*3E
$GPGGA,093124.000,,,,,0,00,,,M,,M,,0000*75
$GPRMC,093124.000,V,,,,,,,310317,,,N*47
$GPVTG,,T,,M,,N,,K,N*2C
$GPGGA,093125.000,,,,,0,00,,,M,,M,,0000*74
$GPRMC,093125.000,V,,,,,,,310317,,,N*46
$GPVTG,,T,,M,,N,,K,N*2C
$GPGGA,093126.000,,,,,0,00,,,M,,M,,0000*77
$GPRMC,093126.000,V,,,,,,,310317,,,N*45
$GPVTG,,T,,M,,N,,K,N*2C
$GPGGA,093127.000,,,,,0,00,,,M,,M,,0000*76
$GPRMC,093127.000,V,,,,,,,310317,,,N*44
$GPVTG,,T,,M,,N,,K,N*2C
$GPGGA,093128.000,,,,,0,00,,,M,,M,,0000*79
$GPGSA,A,1,,,,,,,,,,,,,,,*1E
$GPGSV,3,1,12,08,55,017,23,27,20,036,34,16,10,071,24,30,19,321,*7F
$GPGSV,3,2,12,28,12,290,,23,27,195,,22,02,153,,17,02,227,*76
$GPGSV,3,3,12,11,66,159,,09,38,238,,07,57,335,,01,38,160,*71
$GPRMC,093128.000,V,,,,,,,310317,,,N*4B
$GPVTG,,T,,M,,N,,K,N*2C
$GPGGA,093129.000,,,,,0,00,,,M,,M,,0000*78
$GPRMC,093129.000,V,,,,,,,310317,,,N*4A
$GPVTG,,T,,M,,N,,K,N*2C
$GPGGA,093130.000,,,,,0,00,,,M,,M,,0000*70
$GPRMC,093130.000,V,,,,,,,310317,,,N*42
$GPVTG,,T,,M,,N,,K,N*2C
$GPGGA,093131.000,,,,,0,00,,,M,,M,,0000*71
$GPRMC,093131.000,V,,,,,,,310317,,,N*43
$GPVTG,,T,,M,,N,,K,N*2C
$GPGGA,093132.000,,,,,0,00,,,M,,M,,0000*72
$GPRMC,093132.000,V,,,,,,,310317,,,N*40
$GPVTG,,T,,M,,N,,K,N*2C
$GPGGA,093133.000,,,,,0,00,,,M,,M,,0000*73
$GPGSA,A,1,,,,,,,,,,,,,,,*1E
$GPGSV,3,1,12,08,55,017,23,27,20,036,34,16,10,071,24,30,19,321,*7F
$GPGSV,3,2,12,28,12,290,,23,27,195,,22,02,153,,17,02,227,*76
$GPGSV,3,3,12,11,66,159,,09,38,238,,07,57,335,,01,38,159,*7B
$GPRMC,093133.000,V,,,,,,,310317,,,N*41
$GPVTG,,T,,M,,N,,K,N*2C
$GPGGA,093134.000,,,,,0,00,,,M,,M,,0000*74
$GPRMC,093134.000,V,,,,,,,310317,,,N*46
$GPVTG,,T,,M,,N,,K,N*2C
$GPGGA,093135.000,,,,,0,00,,,M,,M,,0000*75
$GPRMC,093135.000,V,,,,,,,310317,,,N*47
$GPVTG,,T,,M,,N,,K,N*2C
$GPGGA,093136.000,,,,,0,00,,,M,,M,,0000*76
$GPRMC,093136.000,V,,,,,,,310317,,,N*44
$GPVTG,,T,,M,,N,,K,N*2C
$GPGGA,093137.000,,,,,0,00,,,M,,M,,0000*77
$GPRMC,093137.000,V,,,,,,,310317,,,N*45
$GPVTG,,T,,M,,N,,K,N*2C
$GPGGA,093138.000,,,,,0,00,,,M,,M,,0000*78
$GPGSA,A,1,,,,,,,,,,,,,,,*1E
$GPGSV,3,1,12,08,55,017,23,27,20,036,34,16,10,072,24,30,19,321,*7C
$GPGSV,3,2,12,28,12,290,,23,27,195,,22,02,152,,17,02,227,*77
$GPGSV,3,3,12,11,66,159,,09,38,238,,07,57,335,,01,38,159,*7B
$GPRMC,093138.000,V,,,,,,,310317,,,N*4A
$GPVTG,,T,,M,,N,,K,N*2C
$GPGGA,093139.000,,,,,0,00,,,M,,M,,0000*79
$GPRMC,093139.000,V,,,,,,,310317,,,N*4B
$GPVTG,,T,,M,,N,,K,N*2C
$GPGGA,093140.000,,,,,0,00,,,M,,M,,0000*77
$GPRMC,093140.000,V,,,,,,,310317,,,N*45
$GPVTG,,T,,M,,N,,K,N*2C
$GPGGA,093141.000,,,,,0,00,,,M,,M,,0000*76
$GPRMC,093141.000,V,,,,,,,310317,,,N*44
$GPVTG,,T,,M,,N,,K,N*2C
$GPGGA,093142.000,,,,,0,00,,,M,,M,,0000*75
$GPRMC,093142.000,V,,,,,,,310317,,,N*47
$GPVTG,,T,,M,,N,,K,N*2C
$GPGGA,093143.000,,,,,0,00,,,M,,M,,0000*74
$GPGSA,A,1,,,,,,,,,,,,,,,*1E
$GPGSV,3,1,12,08,55,017,20,27,20,036,31,16,10,072,24,30,19,321,*7A
$GPGSV,3,2,12,28,12,290,,23,27,195,,22,02,152,,17,02,227,*77
$GPGSV,3,3,12,11,66,159,,09,38,238,,07,57,335,,01,38,159,*7B
$GPRMC,093143.000,V,,,,,,,310317,,,N*46
$GPVTG,,T,,M,,N,,K,N*2C
$GPGGA,093144.000,,,,,0,00,,,M,,M,,0000*73
$GPRMC,093144.000,V,,,,,,,310317,,,N*41
$GPVTG,,T,,M,,N,,K,N*2C
$GPGGA,093145.000,,,,,0,00,,,M,,M,,0000*72
$GPRMC,093145.000,V,,,,,,,310317,,,N*40
$GPVTG,,T,,M,,N,,K,N*2C
$GPGGA,093146.000,,,,,0,00,,,M,,M,,0000*71
$GPRMC,093146.000,V,,,,,,,310317,,,N*43
$GPVTG,,T,,M,,N,,K,N*2C
$GPGGA,093147.000,,,,,0,00,,,M,,M,,0000*70
$GPRMC,093147.000,V,,,,,,,310317,,,N*42
$GPVTG,,T,,M,,N,,K,N*2C
$GPGGA,093148.000,,,,,0,00,,,M,,M,,0000*7F
$GPGSA,A,1,,,,,,,,,,,,,,,*1E
$GPGSV,3,1,12,08,55,017,20,27,20,036,33,16,10,072,26,30,19,321,*7A
$GPGSV,3,2,12,28,12,290,,23,27,194,,22,02,152,,17,03,227,*77
$GPGSV,3,3,12,11,66,159,,09,38,238,,07,57,335,,01,38,159,*7B
$GPRMC,093148.000,V,,,,,,,310317,,,N*4D
$GPVTG,,T,,M,,N,,K,N*2C
$GPGGA,093149.000,,,,,0,00,,,M,,M,,0000*7E
$GPRMC,093149.000,V,,,,,,,310317,,,N*4C
$GPVTG,,T,,M,,N,,K,N*2C
$GPGGA,093150.000,,,,,0,00,,,M,,M,,0000*76
$GPRMC,093150.000,V,,,,,,,310317,,,N*44
$GPVTG,,T,,M,,N,,K,N*2C
$GPGGA,093151.000,,,,,0,00,,,M,,M,,0000*77
$GPRMC,093151.000,V,,,,,,,310317,,,N*45
$GPVTG,,T,,M,,N,,K,N*2C
$GPGGA,093152.000,,,,,0,00,,,M,,M,,0000*74
$GPRMC,093152.000,V,,,,,,,310317,,,N*46
$GPVTG,,T,,M,,N,,K,N*2C
$GPGGA,093153.000,,,,,0,00,,,M,,M,,0000*75
$GPGSA,A,1,,,,,,,,,,,,,,,*1E
$GPGSV,3,1,12,08,55,017,23,27,20,036,33,16,10,072,26,30,20,321,*73
$GPGSV,3,2,12,28,12,290,,23,27,194,,22,02,152,,17,03,227,*77
$GPGSV,3,3,12,11,66,159,,09,38,238,,07,57,335,,01,38,159,*7B
$GPRMC,093153.000,V,,,,,,,310317,,,N*47
$GPVTG,,T,,M,,N,,K,N*2C
$GPGGA,093154.000,,,,,0,00,,,M,,M,,0000*72
$GPRMC,093154.000,V,,,,,,,310317,,,N*40
$GPVTG,,T,,M,,N,,K,N*2C
$GPGGA,093155.000,,,,,0,00,,,M,,M,,0000*73
$GPRMC,093155.000,V,,,,,,,310317,,,N*41
$GPVTG,,T,,M,,N,,K,N*2C
$GPGGA,093156.000,,,,,0,00,,,M,,M,,0000*70
$GPRMC,093156.000,V,,,,,,,310317,,,N*42
$GPVTG,,T,,M,,N,,K,N*2C
$GPGGA,093157.000,,,,,0,00,,,M,,M,,0000*71
$GPRMC,093157.000,V,,,,,,,310317,,,N*43
$GPVTG,,T,,M,,N,,K,N*2C
$GPGGA,093158.000,,,,,0,00,,,M,,M,,0000*7E
$GPGSA,A,1,,,,,,,,,,,,,,,*1E
$GPGSV,3,1,12,08,55,017,23,27,20,036,33,16,09,072,26,30,20,321,*7B
$GPGSV,3,2,12,28,12,290,,23,27,194,,22,02,152,,17,03,227,*77
$GPGSV,3,3,12,11,66,158,,09,38,238,,07,58,335,,01,38,159,*75
$GPRMC,093158.000,V,,,,,,,310317,,,N*4C
$GPVTG,,T,,M,,N,,K,N*2C
$GPGGA,093159.000,,,,,0,00,,,M,,M,,0000*7F
$GPRMC,093159.000,V,,,,,,,310317,,,N*4D
$GPVTG,,T,,M,,N,,K,N*2C
$GPGGA,093200.000,,,,,0,00,,,M,,M,,0000*70
$GPRMC,093200.000,V,,,,,,,310317,,,N*42
$GPVTG,,T,,M,,N,,K,N*2C
$GPGGA,093201.000,,,,,0,00,,,M,,M,,0000*71
$GPRMC,093201.000,V,,,,,,,310317,,,N*43
$GPVTG,,T,,M,,N,,K,N*2C
$GPGGA,093202.000,,,,,0,00,,,M,,M,,0000*72
$GPRMC,093202.000,V,,,,,,,310317,,,N*40
$GPVTG,,T,,M,,N,,K,N*2C
$GPGGA,093203.000,,,,,0,00,,,M,,M,,0000*73
$GPGSA,A,1,,,,,,,,,,,,,,,*1E
$GPGSV,3,1,12,08,55,017,22,27,20,036,33,16,09,072,26,30,20,321,*7A
$GPGSV,3,2,12,28,12,290,,23,27,194,,22,02,152,,17,03,227,*77
$GPGSV,3,3,12,11,66,158,,09,38,238,,07,58,335,,01,38,159,*75
$GPRMC,093203.000,V,,,,,,,310317,,,N*41
$GPVTG,,T,,M,,N,,K,N*2C
$GPGGA,093204.000,,,,,0,00,,,M,,M,,0000*74
$GPRMC,093204.000,V,,,,,,,310317,,,N*46
$GPVTG,,T,,M,,N,,K,N*2C
$GPGGA,093205.000,,,,,0,00,,,M,,M,,0000*75
$GPRMC,093205.000,V,,,,,,,310317,,,N*47
$GPVTG,,T,,M,,N,,K,N*2C
$GPGGA,093206.000,,,,,0,00,,,M,,M,,0000*76
$GPRMC,093206.000,V,,,,,,,310317,,,N*44
$GPVTG,,T,,M,,N,,K,N*2C
$GPGGA,093207.000,,,,,0,00,,,M,,M,,0000*77
$GPRMC,093207.000,V,,,,,,,310317,,,N*45
$GPVTG,,T,,M,,N,,K,N*2C
$GPGGA,093208.000,,,,,0,00,,,M,,M,,0000*78
$GPGSA,A,1,,,,,,,,,,,,,,,*1E
$GPGSV,3,1,12,08,55,017,22,27,20,036,33,16,09,072,26,30,20,321,*7A
$GPGSV,3,2,12,28,12,290,,23,27,194,,22,02,152,,17,03,227,*77
$GPGSV,3,3,12,11,66,158,,09,38,238,,07,58,335,,01,38,159,*75
$GPRMC,093208.000,V,,,,,,,310317,,,N*4A
$GPVTG,,T,,M,,N,,K,N*2C
$GPGGA,093209.000,,,,,0,00,,,M,,M,,0000*79
$GPRMC,093209.000,V,,,,,,,310317,,,N*4B
$GPVTG,,T,,M,,N,,K,N*2C
$GPGGA,093210.000,,,,,0,00,,,M,,M,,0000*71
$GPRMC,093210.000,V,,,,,,,310317,,,N*43
$GPVTG,,T,,M,,N,,K,N*2C
$GPGGA,093211.000,,,,,0,00,,,M,,M,,0000*70
$GPRMC,093211.000,V,,,,,,,310317,,,N*42
$GPVTG,,T,,M,,N,,K,N*2C
$GPGGA,093212.000,,,,,0,00,,,M,,M,,0000*73
$GPRMC,093212.000,V,,,,,,,310317,,,N*41
$GPVTG,,T,,M,,N,,K,N*2C
$GPGGA,093213.000,,,,,0,00,,,M,,M,,0000*72
$GPGSA,A,1,,,,,,,,,,,,,,,*1E
$GPGSV,3,1,12,08,55,017,22,27,20,036,33,16,09,072,23,30,20,321,*7F
$GPGSV,3,2,12,28,12,290,,23,27,194,,22,02,152,,17,03,227,*77
$GPGSV,3,3,12,11,66,158,,09,38,238,,07,58,335,,01,38,159,*75
$GPRMC,093213.000,V,,,,,,,310317,,,N*40
$GPVTG,,T,,M,,N,,K,N*2C
$GPGGA,093214.000,,,,,0,00,,,M,,M,,0000*75
$GPRMC,093214.000,V,,,,,,,310317,,,N*47
$GPVTG,,T,,M,,N,,K,N*2C
$GPGGA,093215.000,,,,,0,00,,,M,,M,,0000*74
$GPRMC,093215.000,V,,,,,,,310317,,,N*46
$GPVTG,,T,,M,,N,,K,N*2C
$GPGGA,093216.000,,,,,0,00,,,M,,M,,0000*77
$GPRMC,093216.000,V,,,,,,,310317,,,N*45
$GPVTG,,T,,M,,N,,K,N*2C
$GPGGA,093217.000,,,,,0,00,,,M,,M,,0000*76
$GPRMC,093217.000,V,,,,,,,310317,,,N*44
$GPVTG,,T,,M,,N,,K,N*2C
$GPGGA,093218.000,,,,,0,00,,,M,,M,,0000*79
$GPGSA,A,1,,,,,,,,,,,,,,,*1E
$GPGSV,3,1,12,08,55,017,22,27,20,036,33,16,09,072,26,30,20,321,*7A
$GPGSV,3,2,12,28,12,290,,23,26,194,,22,02,152,,17,03,227,*76
$GPGSV,3,3,12,11,66,158,,09,38,238,,07,58,335,,01,38,159,*75
$GPRMC,093218.000,V,,,,,,,310317,,,N*4B
$GPVTG,,T,,M,,N,,K,N*2C
$GPGGA,093219.000,,,,,0,00,,,M,,M,,0000*78
$GPRMC,093219.000,V,,,,,,,310317,,,N*4A
$GPVTG,,T,,M,,N,,K,N*2C
$GPGGA,093220.000,,,,,0,00,,,M,,M,,0000*72
$GPRMC,093220.000,V,,,,,,,310317,,,N*40
$GPVTG,,T,,M,,N,,K,N*2C
$GPGGA,093221.000,,,,,0,00,,,M,,M,,0000*73
$GPRMC,093221.000,V,,,,,,,310317,,,N*41
$GPVTG,,T,,M,,N,,K,N*2C
$GPGGA,093222.000,,,,,0,00,,,M,,M,,0000*70
$GPRMC,093222.000,V,,,,,,,310317,,,N*42
$GPVTG,,T,,M,,N,,K,N*2C
$GPGGA,093223.000,,,,,0,00,,,M,,M,,0000*71
$GPGSA,A,1,,,,,,,,,,,,,,,*1E
$GPGSV,3,1,12,08,55,017,22,27,20,036,33,16,09,072,26,30,20,321,*7A
$GPGSV,3,2,12,28,12,290,,23,26,194,,22,02,152,,17,03,227,*76
$GPGSV,3,3,12,11,66,158,,09,38,238,,07,58,335,,01,38,159,*75
$GPRMC,093223.000,V,,,,,,,310317,,,N*43
$GPVTG,,T,,M,,N,,K,N*2C
$GPGGA,093224.000,,,,,0,00,,,M,,M,,0000*76
$GPRMC,093224.000,V,,,,,,,310317,,,N*44
$GPVTG,,T,,M,,N,,K,N*2C
$GPGGA,093225.000,,,,,0,00,,,M,,M,,0000*77
$GPRMC,093225.000,V,,,,,,,310317,,,N*45
$GPVTG,,T,,M,,N,,K,N*2C
$GPGGA,093226.000,,,,,0,00,,,M,,M,,0000*74
$GPRMC,093226.000,V,,,,,,,310317,,,N*46
$GPVTG,,T,,M,,N,,K,N*2C
$GPGGA,093227.000,,,,,0,00,,,M,,M,,0000*75
$GPRMC,093227.000,V,,,,,,,310317,,,N*47
$GPVTG,,T,,M,,N,,K,N*2C
$GPGGA,093228.000,,,,,0,00,,,M,,M,,0000*7A
$GPGSA,A,1,,,,,,,,,,,,,,,*1E
$GPGSV,3,1,12,08,55,017,22,27,20,036,33,16,09,072,23,30,20,321,*7F
$GPGSV,3,2,12,28,12,290,,23,26,194,,22,02,152,,17,03,227,*76
$GPGSV,3,3,12,11,66,158,,09,38,238,,07,58,335,,01,38,159,*75
$GPRMC,093228.000,V,,,,,,,310317,,,N*48
$GPVTG,,T,,M,,N,,K,N*2C
$GPGGA,093229.000,,,,,0,00,,,M,,M,,0000*7B
$GPRMC,093229.000,V,,,,,,,310317,,,N*49
$GPVTG,,T,,M,,N,,K,N*2C
$GPGGA,093230.000,,,,,0,00,,,M,,M,,0000*73
$GPRMC,093230.000,V,,,,,,,310317,,,N*41
$GPVTG,,T,,M,,N,,K,N*2C
$GPGGA,093231.000,,,,,0,00,,,M,,M,,0000*72
$GPRMC,093231.000,V,,,,,,,310317,,,N*40
$GPVTG,,T,,M,,N,,K,N*2C
$GPGGA,093232.000,,,,,0,00,,,M,,M,,0000*71
$GPRMC,093232.000,V,,,,,,,310317,,,N*43
$GPVTG,,T,,M,,N,,K,N*2C
$GPGGA,093233.000,,,,,0,00,,,M,,M,,0000*70
$GPGSA,A,1,,,,,,,,,,,,,,,*1E
$GPGSV,3,1,12,08,55,017,22,27,20,036,33,16,09,072,24,30,20,321,*78
$GPGSV,3,2,12,28,12,290,,23,26,194,,22,02,152,,17,03,227,*76
$GPGSV,3,3,12,11,66,158,,09,38,238,,07,58,335,,01,38,159,*75
$GPRMC,093233.000,V,,,,,,,310317,,,N*42
$GPVTG,,T,,M,,N,,K,N*2C
$GPGGA,093234.000,,,,,0,00,,,M,,M,,0000*77
$GPRMC,093234.000,V,,,,,,,310317,,,N*45
$GPVTG,,T,,M,,N,,K,N*2C
$GPGGA,093235.000,,,,,0,00,,,M,,M,,0000*76
$GPRMC,093235.000,V,,,,,,,310317,,,N*44
$GPVTG,,T,,M,,N,,K,N*2C
$GPGGA,093236.000,,,,,0,00,,,M,,M,,0000*75
$GPRMC,093236.000,V,,,,,,,310317,,,N*47
$GPVTG,,T,,M,,N,,K,N*2C
$GPGGA,093237.000,,,,,0,00,,,M,,M,,0000*74
$GPRMC,093237.000,V,,,,,,,310317,,,N*46
$GPVTG,,T,,M,,N,,K,N*2C
$GPGGA,093238.000,,,,,0,00,,,M,,M,,0000*7B
$GPGSA,A,1,,,,,,,,,,,,,,,*1E
$GPGSV,3,1,12,08,55,017,23,27,20,036,33,16,09,072,24,30,20,321,*79
$GPGSV,3,2,12,28,12,290,,23,26,194,,22,02,152,,17,03,227,*76
$GPGSV,3,3,12,11,66,158,,09,38,238,,07,58,335,,01,38,159,*75
$GPRMC,093238.000,V,,,,,,,310317,,,N*49
$GPVTG,,T,,M,,N,,K,N*2C
$GPGGA,093239.000,,,,,0,00,,,M,,M,,0000*7A
$GPRMC,093239.000,V,,,,,,,310317,,,N*48
$GPVTG,,T,,M,,N,,K,N*2C
$GPGGA,093240.000,,,,,0,00,,,M,,M,,0000*74
$GPRMC,093240.000,V,,,,,,,310317,,,N*46
$GPVTG,,T,,M,,N,,K,N*2C
$GPGGA,093241.000,,,,,0,00,,,M,,M,,0000*75
$GPRMC,093241.000,V,,,,,,,310317,,,N*47
$GPVTG,,T,,M,,N,,K,N*2C
$GPGGA,093242.000,,,,,0,00,,,M,,M,,0000*76
$GPRMC,093242.000,V,,,,,,,310317,,,N*44
$GPVTG,,T,,M,,N,,K,N*2C
$GPGGA,093243.000,,,,,0,00,,,M,,M,,0000*77
$GPGSA,A,1,,,,,,,,,,,,,,,*1E
$GPGSV,3,1,12,08,54,017,23,27,20,036,33,16,09,072,26,30,20,321,*7A
$GPGSV,3,2,12,28,12,290,,23,26,194,,22,02,152,,17,03,227,*76
$GPGSV,3,3,12,11,66,158,,09,38,238,,07,58,335,,01,39,159,*74
$GPRMC,093243.000,V,,,,,,,310317,,,N*45
$GPVTG,,T,,M,,N,,K,N*2C
$GPGGA,093244.000,,,,,0,00,,,M,,M,,0000*70
$GPRMC,093244.000,V,,,,,,,310317,,,N*42
$GPVTG,,T,,M,,N,,K,N*2C
$GPGGA,093245.000,,,,,0,00,,,M,,M,,0000*71
$GPRMC,093245.000,V,,,,,,,310317,,,N*43
$GPVTG,,T,,M,,N,,K,N*2C
$GPGGA,093246.000,,,,,0,00,,,M,,M,,0000*72
$GPRMC,093246.000,V,,,,,,,310317,,,N*40
$GPVTG,,T,,M,,N,,K,N*2C
$GPGGA,093247.000,,,,,0,00,,,M,,M,,0000*73
$GPRMC,093247.000,V,,,,,,,310317,,,N*41
$GPVTG,,T,,M,,N,,K,N*2C
$GPGGA,093248.000,,,,,0,00,,,M,,M,,0000*7C
$GPGSA,A,1,,,,,,,,,,,,,,,*1E
$GPGSV,3,1,12,08,54,017,23,27,20,036,33,16,09,072,26,30,20,321,*7A
$GPGSV,3,2,12,28,12,290,,23,26,194,,22,02,152,,17,03,227,*76
$GPGSV,3,3,12,11,66,158,,09,38,238,,07,58,335,,01,39,159,*74
$GPRMC,093248.000,V,,,,,,,310317,,,N*4E
$GPVTG,,T,,M,,N,,K,N*2C
$GPGGA,093249.000,,,,,0,00,,,M,,M,,0000*7D
$GPRMC,093249.000,V,,,,,,,310317,,,N*4F
$GPVTG,,T,,M,,N,,K,N*2C
$GPGGA,093250.000,,,,,0,00,,,M,,M,,0000*75
$GPRMC,093250.000,V,,,,,,,310317,,,N*47
$GPVTG,,T,,M,,N,,K,N*2C
$GPGGA,093251.000,,,,,0,00,,,M,,M,,0000*74
$GPRMC,093251.000,V,,,,,,,310317,,,N*46
$GPVTG,,T,,M,,N,,K,N*2C
$GPGGA,093252.000,,,,,0,00,,,M,,M,,0000*77
$GPRMC,093252.000,V,,,,,,,310317,,,N*45
$GPVTG,,T,,M,,N,,K,N*2C
$GPGGA,093253.000,,,,,0,00,,,M,,M,,0000*76
$GPGSA,A,1,,,,,,,,,,,,,,,*1E
$GPGSV,3,1,12,08,54,017,25,27,20,036,33,16,09,072,26,30,20,321,*7C
$GPGSV,3,2,12,28,12,290,,23,26,194,,22,02,152,,17,03,227,*76
$GPGSV,3,3,12,11,67,158,,09,38,238,,07,58,335,,01,39,159,*75
$GPRMC,093253.000,V,,,,,,,310317,,,N*44
$GPVTG,,T,,M,,N,,K,N*2C
$GPGGA,093254.000,,,,,0,00,,,M,,M,,0000*71
$GPRMC,093254.000,V,,,,,,,310317,,,N*43
$GPVTG,,T,,M,,N,,K,N*2C
$GPGGA,093255.000,,,,,0,00,,,M,,M,,0000*70
$GPRMC,093255.000,V,,,,,,,310317,,,N*42
$GPVTG,,T,,M,,N,,K,N*2C
$GPGGA,093256.000,,,,,0,00,,,M,,M,,0000*73
$GPRMC,093256.000,V,,,,,,,310317,,,N*41
$GPVTG,,T,,M,,N,,K,N*2C
$GPGGA,093257.000,,,,,0,00,,,M,,M,,0000*72
$GPRMC,093257.000,V,,,,,,,310317,,,N*40
$GPVTG,,T,,M,,N,,K,N*2C
$GPGGA,093258.000,,,,,0,00,,,M,,M,,0000*7D
$GPGSA,A,1,,,,,,,,,,,,,,,*1E
$GPGSV,3,1,12,08,54,017,25,27,20,036,33,16,09,072,24,30,20,321,*7E
$GPGSV,3,2,12,28,12,290,,23,26,194,,22,02,152,,17,03,227,*76
$GPGSV,3,3,12,11,67,158,,09,38,237,,07,58,335,,01,39,159,*7A
$GPRMC,093258.000,V,,,,,,,310317,,,N*4F
$GPVTG,,T,,M,,N,,K,N*2C
$GPGGA,093259.000,,,,,0,00,,,M,,M,,0000*7C
$GPRMC,093259.000,V,,,,,,,310317,,,N*4E
$GPVTG,,T,,M,,N,,K,N*2C
$GPGGA,093300.000,,,,,0,00,,,M,,M,,0000*71
$GPRMC,093300.000,V,,,,,,,310317,,,N*43
$GPVTG,,T,,M,,N,,K,N*2C
$GPGGA,093301.000,,,,,0,00,,,M,,M,,0000*70
$GPRMC,093301.000,V,,,,,,,310317,,,N*42
$GPVTG,,T,,M,,N,,K,N*2C
$GPGGA,093302.000,,,,,0,00,,,M,,M,,0000*73
$GPRMC,093302.000,V,,,,,,,310317,,,N*41
$GPVTG,,T,,M,,N,,K,N*2C
$GPGGA,093303.000,,,,,0,00,,,M,,M,,0000*72
$GPGSA,A,1,,,,,,,,,,,,,,,*1E
$GPGSV,3,1,12,08,54,017,25,27,20,036,34,16,09,072,24,30,20,321,*79
$GPGSV,3,2,12,28,12,290,,23,26,194,,22,02,152,,17,03,227,*76
$GPGSV,3,3,12,11,67,158,,09,38,237,,07,58,335,,01,39,159,*7A
$GPRMC,093303.000,V,,,,,,,310317,,,N*40
$GPVTG,,T,,M,,N,,K,N*2C
$GPGGA,093304.000,,,,,0,00,,,M,,M,,0000*75
$GPRMC,093304.000,V,,,,,,,310317,,,N*47
$GPVTG,,T,,M,,N,,K,N*2C
$GPGGA,093305.000,,,,,0,00,,,M,,M,,0000*74
$GPRMC,093305.000,V,,,,,,,310317,,,N*46
$GPVTG,,T,,M,,N,,K,N*2C
$GPGGA,093306.000,,,,,0,00,,,M,,M,,0000*77
$GPRMC,093306.000,V,,,,,,,310317,,,N*45
$GPVTG,,T,,M,,N,,K,N*2C
$GPGGA,093307.000,,,,,0,00,,,M,,M,,0000*76
$GPRMC,093307.000,V,,,,,,,310317,,,N*44
$GPVTG,,T,,M,,N,,K,N*2C
$GPGGA,093308.000,,,,,0,00,,,M,,M,,0000*79
$GPGSA,A,1,,,,,,,,,,,,,,,*1E
$GPGSV,3,1,12,08,54,017,25,27,20,036,34,16,09,072,24,30,20,321,*79
$GPGSV,3,2,12,28,12,290,,23,26,194,,22,02,152,,17,03,227,*76
$GPGSV,3,3,12,11,67,158,,09,38,237,,07,58,335,,01,39,159,*7A
$GPRMC,093308.000,V,,,,,,,310317,,,N*4B
$GPVTG,,T,,M,,N,,K,N*2C
$GPGGA,093309.000,,,,,0,00,,,M,,M,,0000*78
$GPRMC,093309.000,V,,,,,,,310317,,,N*4A
$GPVTG,,T,,M,,N,,K,N*2C
$GPGGA,093310.000,,,,,0,00,,,M,,M,,0000*70
$GPRMC,093310.000,V,,,,,,,310317,,,N*42
$GPVTG,,T,,M,,N,,K,N*2C
$GPGGA,093311.000,,,,,0,00,,,M,,M,,0000*71
$GPRMC,093311.000,V,,,,,,,310317,,,N*43
$GPVTG,,T,,M,,N,,K,N*2C
$GPGGA,093312.000,,,,,0,00,,,M,,M,,0000*72
$GPRMC,093312.000,V,,,,,,,310317,,,N*40
$GPVTG,,T,,M,,N,,K,N*2C
$GPGGA,093313.000,,,,,0,00,,,M,,M,,0000*73
$GPGSA,A,1,,,,,,,,,,,,,,,*1E
$GPGSV,3,1,12,08,54,017,25,27,20,036,34,16,09,072,24,30,20,322,*7A
$GPGSV,3,2,12,28,12,290,,23,26,194,,22,02,152,,17,03,228,*79
$GPGSV,3,3,12,11,67,158,,09,38,237,,07,58,335,,01,39,159,*7A
$GPRMC,093313.000,V,,,,,,,310317,,,N*41
$GPVTG,,T,,M,,N,,K,N*2C
$GPGGA,093314.000,,,,,0,00,,,M,,M,,0000*74
$GPRMC,093314.000,V,,,,,,,310317,,,N*46
$GPVTG,,T,,M,,N,,K,N*2C
$GPGGA,093315.000,,,,,0,00,,,M,,M,,0000*75
$GPRMC,093315.000,V,,,,,,,310317,,,N*47
$GPVTG,,T,,M,,N,,K,N*2C
$GPGGA,093316.000,,,,,0,00,,,M,,M,,0000*76
$GPRMC,093316.000,V,,,,,,,310317,,,N*44
$GPVTG,,T,,M,,N,,K,N*2C
$GPGGA,093317.000,,,,,0,00,,,M,,M,,0000*77
$GPRMC,093317.000,V,,,,,,,310317,,,N*45
$GPVTG,,T,,M,,N,,K,N*2C
$GPGGA,093318.000,,,,,0,00,,,M,,M,,0000*78
$GPGSA,A,1,,,,,,,,,,,,,,,*1E
$GPGSV,3,1,12,08,54,017,25,27,20,036,34,16,09,072,24,30,20,322,*7A
$GPGSV,3,2,12,28,12,290,,23,26,194,,22,02,152,,17,03,228,*79
$GPGSV,3,3,12,11,67,158,,09,38,237,,07,58,335,,01,39,159,*7A
$GPRMC,093318.000,V,,,,,,,310317,,,N*4A
$GPVTG,,T,,M,,N,,K,N*2C
$GPGGA,093319.000,,,,,0,00,,,M,,M,,0000*79
$GPRMC,093319.000,V,,,,,,,310317,,,N*4B
$GPVTG,,T,,M,,N,,K,N*2C
$GPGGA,093320.000,,,,,0,00,,,M,,M,,0000*73
$GPRMC,093320.000,V,,,,,,,310317,,,N*41
$GPVTG,,T,,M,,N,,K,N*2C
$GPGGA,093321.000,,,,,0,00,,,M,,M,,0000*72
$GPRMC,093321.000,V,,,,,,,310317,,,N*40
$GPVTG,,T,,M,,N,,K,N*2C
$GPGGA,093322.000,,,,,0,00,,,M,,M,,0000*71
$GPRMC,093322.000,V,,,,,,,310317,,,N*43
$GPVTG,,T,,M,,N,,K,N*2C
$GPGGA,093323.000,,,,,0,00,,,M,,M,,0000*70
$GPGSA,A,1,,,,,,,,,,,,,,,*1E
$GPGSV,3,1,12,08,54,017,25,27,20,036,34,16,09,072,24,30,20,322,*7A
$GPGSV,3,2,12,28,12,290,,23,26,194,,22,02,152,,17,03,228,*79
$GPGSV,3,3,12,11,67,158,,09,38,237,,07,58,335,,01,39,159,*7A
$GPRMC,093323.000,V,,,,,,,310317,,,N*42
$GPVTG,,T,,M,,N,,K,N*2C
$GPGGA,093324.000,,,,,0,00,,,M,,M,,0000*77
$GPRMC,093324.000,V,,,,,,,310317,,,N*45
$GPVTG,,T,,M,,N,,K,N*2C
$GPGGA,093325.000,,,,,0,00,,,M,,M,,0000*76
$GPRMC,093325.000,V,,,,,,,310317,,,N*44
$GPVTG,,T,,M,,N,,K,N*2C
$GPGGA,093326.000,,,,,0,00,,,M,,M,,0000*75
$GPRMC,093326.000,V,,,,,,,310317,,,N*47
$GPVTG,,T,,M,,N,,K,N*2C
$GPGGA,093327.000,,,,,0,00,,,M,,M,,0000*74
$GPRMC,093327.000,V,,,,,,,310317,,,N*46
$GPVTG,,T,,M,,N,,K,N*2C
$GPGGA,093328.000,,,,,0,00,,,M,,M,,0000*7B
$GPGSA,A,1,,,,,,,,,,,,,,,*1E
$GPGSV,3,1,12,08,54,017,25,27,20,036,35,16,09,072,24,30,20,322,*7B
$GPGSV,3,2,12,28,12,290,,23,26,194,,22,03,152,,17,03,228,*78
$GPGSV,3,3,12,11,67,157,,09,38,237,,07,58,335,,01,39,159,*75
$GPRMC,093328.000,V,,,,,,,310317,,,N*49
$GPVTG,,T,,M,,N,,K,N*2C
$GPGGA,093329.000,,,,,0,00,,,M,,M,,0000*7A
$GPRMC,093329.000,V,,,,,,,310317,,,N*48
$GPVTG,,T,,M,,N,,K,N*2C
$GPGGA,093330.000,,,,,0,00,,,M,,M,,0000*72
$GPRMC,093330.000,V,,,,,,,310317,,,N*40
$GPVTG,,T,,M,,N,,K,N*2C
$GPGGA,093331.000,,,,,0,00,,,M,,M,,0000*73
$GPRMC,093331.000,V,,,,,,,310317,,,N*41
$GPVTG,,T,,M,,N,,K,N*2C
$GPGGA,093332.000,,,,,0,00,,,M,,M,,0000*70
$GPRMC,093332.000,V,,,,,,,310317,,,N*42
$GPVTG,,T,,M,,N,,K,N*2C
$GPGGA,093333.000,,,,,0,00,,,M,,M,,0000*71
$GPGSA,A,1,,,,,,,,,,,,,,,*1E
$GPGSV,3,1,12,08,54,017,25,27,20,036,35,16,09,072,26,30,20,322,*79
$GPGSV,3,2,12,28,12,290,,23,26,194,,22,03,152,,17,03,228,*78
$GPGSV,3,3,12,11,67,157,,09,38,237,,07,58,335,,01,39,159,*75
$GPRMC,093333.000,V,,,,,,,310317,,,N*43
$GPVTG,,T,,M,,N,,K,N*2C
$GPGGA,093334.000,,,,,0,00,,,M,,M,,0000*76
$GPRMC,093334.000,V,,,,,,,310317,,,N*44
$GPVTG,,T,,M,,N,,K,N*2C
$GPGGA,093335.000,,,,,0,00,,,M,,M,,0000*77
$GPRMC,093335.000,V,,,,,,,310317,,,N*45
$GPVTG,,T,,M,,N,,K,N*2C
$GPGGA,093336.000,,,,,0,00,,,M,,M,,0000*74
$GPRMC,093336.000,V,,,,,,,310317,,,N*46
$GPVTG,,T,,M,,N,,K,N*2C
$GPGGA,093337.000,,,,,0,00,,,M,,M,,0000*75
$GPRMC,093337.000,V,,,,,,,310317,,,N*47
$GPVTG,,T,,M,,N,,K,N*2C
$GPGGA,093338.000,,,,,0,00,,,M,,M,,0000*7A
$GPGSA,A,1,,,,,,,,,,,,,,,*1E
$GPGSV,3,1,12,08,54,017,22,27,20,036,35,16,09,072,26,30,20,322,*7E
$GPGSV,3,2,12,28,12,290,,23,26,194,,22,03,152,,17,03,228,*78
$GPGSV,3,3,12,11,67,157,,09,38,237,,07,58,335,,01,39,159,*75
$GPRMC,093338.000,V,,,,,,,310317,,,N*48
$GPVTG,,T,,M,,N,,K,N*2C
$GPGGA,093339.000,,,,,0,00,,,M,,M,,0000*7B
$GPRMC,093339.000,V,,,,,,,310317,,,N*49
$GPVTG,,T,,M,,N,,K,N*2C
$GPGGA,093340.000,,,,,0,00,,,M,,M,,0000*75
$GPRMC,093340.000,V,,,,,,,310317,,,N*47
$GPVTG,,T,,M,,N,,K,N*2C
$GPGGA,093341.000,,,,,0,00,,,M,,M,,0000*74
$GPRMC,093341.000,V,,,,,,,310317,,,N*46
$GPVTG,,T,,M,,N,,K,N*2C
$GPGGA,093342.000,,,,,0,00,,,M,,M,,0000*77
$GPRMC,093342.000,V,,,,,,,310317,,,N*45
$GPVTG,,T,,M,,N,,K,N*2C
$GPGGA,093343.000,,,,,0,00,,,M,,M,,0000*76
$GPGSA,A,1,,,,,,,,,,,,,,,*1E
$GPGSV,3,1,12,08,54,017,23,27,19,036,33,16,09,072,26,30,20,322,*73
$GPGSV,3,2,12,28,12,290,,23,26,194,,22,03,152,,17,03,228,*78
$GPGSV,3,3,12,11,67,157,,09,38,237,,07,58,335,,01,39,159,*75
$GPRMC,093343.000,V,,,,,,,310317,,,N*44
$GPVTG,,T,,M,,N,,K,N*2C
$GPGGA,093344.000,,,,,0,00,,,M,,M,,0000*71
$GPRMC,093344.000,V,,,,,,,310317,,,N*43
$GPVTG,,T,,M,,N,,K,N*2C
$GPGGA,093345.000,,,,,0,00,,,M,,M,,0000*70
$GPRMC,093345.000,V,,,,,,,310317,,,N*42
$GPVTG,,T,,M,,N,,K,N*2C
$GPGGA,093346.000,,,,,0,00,,,M,,M,,0000*73
$GPRMC,093346.000,V,,,,,,,310317,,,N*41
$GPVTG,,T,,M,,N,,K,N*2C
$GPGGA,093347.000,,,,,0,00,,,M,,M,,0000*72
$GPRMC,093347.000,V,,,,,,,310317,,,N*40
$GPVTG,,T,,M,,N,,K,N*2C
$GPGGA,093348.000,,,,,0,00,,,M,,M,,0000*7D
$GPGSA,A,1,,,,,,,,,,,,,,,*1E
$GPGSV,3,1,12,08,54,017,22,27,19,036,34,16,09,072,26,30,20,322,*75
$GPGSV,3,2,12,28,12,291,,23,26,194,,22,03,152,,17,03,228,*79
$GPGSV,3,3,12,11,67,157,,09,38,237,,07,58,335,,01,39,159,*75
$GPRMC,093348.000,V,,,,,,,310317,,,N*4F
$GPVTG,,T,,M,,N,,K,N*2C
$GPGGA,093349.000,,,,,0,00,,,M,,M,,0000*7C
$GPRMC,093349.000,V,,,,,,,310317,,,N*4E
$GPVTG,,T,,M,,N,,K,N*2C
$GPGGA,093350.000,,,,,0,00,,,M,,M,,0000*74
$GPRMC,093350.000,V,,,,,,,310317,,,N*46
$GPVTG,,T,,M,,N,,K,N*2C
$GPGGA,093351.000,,,,,0,00,,,M,,M,,0000*75
$GPRMC,093351.000,V,,,,,,,310317,,,N*47
$GPVTG,,T,,M,,N,,K,N*2C
$GPGGA,093352.000,,,,,0,00,,,M,,M,,0000*76
$GPRMC,093352.000,V,,,,,,,310317,,,N*44
$GPVTG,,T,,M,,N,,K,N*2C
$GPGGA,093353.000,,,,,0,00,,,M,,M,,0000*77
$GPGSA,A,1,,,,,,,,,,,,,,,*1E
$GPGSV,3,1,12,08,54,017,22,27,19,036,34,16,09,072,26,30,20,322,*75
$GPGSV,3,2,12,28,12,291,,23,26,194,,22,03,152,,17,03,228,*79
$GPGSV,3,3,12,11,67,157,,09,38,237,,07,58,335,,01,39,159,*75
$GPRMC,093353.000,V,,,,,,,310317,,,N*45
$GPVTG,,T,,M,,N,,K,N*2C
$GPGGA,093354.000,,,,,0,00,,,M,,M,,0000*70
$GPRMC,093354.000,V,,,,,,,310317,,,N*42
$GPVTG,,T,,M,,N,,K,N*2C
$GPGGA,093355.000,,,,,0,00,,,M,,M,,0000*71
$GPRMC,093355.000,V,,,,,,,310317,,,N*43
$GPVTG,,T,,M,,N,,K,N*2C
$GPGGA,093356.000,,,,,0,00,,,M,,M,,0000*72
$GPRMC,093356.000,V,,,,,,,310317,,,N*40
$GPVTG,,T,,M,,N,,K,N*2C
$GPGGA,093357.000,,,,,0,00,,,M,,M,,0000*73
$GPRMC,093357.000,V,,,,,,,310317,,,N*41
$GPVTG,,T,,M,,N,,K,N*2C
$GPGGA,093358.000,,,,,0,00,,,M,,M,,0000*7C
$GPGSA,A,1,,,,,,,,,,,,,,,*1E
$GPGSV,3,1,12,08,54,017,22,27,19,036,34,16,09,072,26,30,20,322,*75
$GPGSV,3,2,12,28,12,291,,23,26,194,,22,03,152,,17,03,228,*79
$GPGSV,3,3,12,11,67,157,,09,38,237,,07,58,335,,01,39,159,*75
$GPRMC,093358.000,V,,,,,,,310317,,,N*4E
$GPVTG,,T,,M,,N,,K,N*2C
$GPGGA,093359.000,,,,,0,00,,,M,,M,,0000*7D
$GPRMC,093359.000,V,,,,,,,310317,,,N*4F
$GPVTG,,T,,M,,N,,K,N*2C
$GPGGA,093400.000,,,,,0,00,,,M,,M,,0000*76
$GPRMC,093400.000,V,,,,,,,310317,,,N*44
$GPVTG,,T,,M,,N,,K,N*2C
$GPGGA,093401.000,,,,,0,00,,,M,,M,,0000*77
$GPRMC,093401.000,V,,,,,,,310317,,,N*45
$GPVTG,,T,,M,,N,,K,N*2C
$GPGGA,093402.000,,,,,0,00,,,M,,M,,0000*74
$GPRMC,093402.000,V,,,,,,,310317,,,N*46
$GPVTG,,T,,M,,N,,K,N*2C
$GPGGA,093403.000,,,,,0,00,,,M,,M,,0000*75
$GPGSA,A,1,,,,,,,,,,,,,,,*1E
$GPGSV,3,1,12,08,54,018,22,27,19,036,34,16,09,072,28,30,20,322,*74
$GPGSV,3,2,12,28,12,291,,23,26,194,,22,03,152,,17,03,228,*79
$GPGSV,3,3,12,11,67,157,,09,38,237,,07,58,335,,01,39,159,*75
$GPRMC,093403.000,V,,,,,,,310317,,,N*47
$GPVTG,,T,,M,,N,,K,N*2C
$GPGGA,093404.000,,,,,0,00,,,M,,M,,0000*72
$GPRMC,093404.000,V,,,,,,,310317,,,N*40
$GPVTG,,T,,M,,N,,K,N*2C
$GPGGA,093405.000,,,,,0,00,,,M,,M,,0000*73
$GPRMC,093405.000,V,,,,,,,310317,,,N*41
$GPVTG,,T,,M,,N,,K,N*2C
$GPGGA,093406.000,,,,,0,00,,,M,,M,,0000*70
$GPRMC,093406.000,V,,,,,,,310317,,,N*42
$GPVTG,,T,,M,,N,,K,N*2C
$GPGGA,093407.000,,,,,0,00,,,M,,M,,0000*71
$GPRMC,093407.000,V,,,,,,,310317,,,N*43
$GPVTG,,T,,M,,N,,K,N*2C
$GPGGA,093408.000,,,,,0,00,,,M,,M,,0000*7E
$GPGSA,A,1,,,,,,,,,,,,,,,*1E
$GPGSV,3,1,12,08,54,018,22,27,19,036,34,16,09,073,26,30,20,322,*7B
$GPGSV,3,2,12,28,12,291,,23,26,194,,22,03,152,,17,03,228,*79
$GPGSV,3,3,12,11,67,157,,09,38,237,,07,59,335,,01,39,159,*74
$GPRMC,093408.000,V,,,,,,,310317,,,N*4C
$GPVTG,,T,,M,,N,,K,N*2C
$GPGGA,093409.000,,,,,0,00,,,M,,M,,0000*7F
$GPRMC,093409.000,V,,,,,,,310317,,,N*4D
$GPVTG,,T,,M,,N,,K,N*2C
$GPGGA,093410.000,,,,,0,00,,,M,,M,,0000*77
$GPRMC,093410.000,V,,,,,,,310317,,,N*45
$GPVTG,,T,,M,,N,,K,N*2C
$GPGGA,093411.000,,,,,0,00,,,M,,M,,0000*76
$GPRMC,093411.000,V,,,,,,,310317,,,N*44
$GPVTG,,T,,M,,N,,K,N*2C
$GPGGA,093412.000,,,,,0,00,,,M,,M,,0000*75
$GPRMC,093412.000,V,,,,,,,310317,,,N*47
$GPVTG,,T,,M,,N,,K,N*2C
$GPGGA,093413.000,,,,,0,00,,,M,,M,,0000*74
$GPGSA,A,1,,,,,,,,,,,,,,,*1E
$GPGSV,3,1,12,08,54,018,22,27,19,036,34,16,09,073,26,30,20,322,*7B
$GPGSV,3,2,12,28,12,291,,23,26,194,,22,03,152,,17,03,228,*79
$GPGSV,3,3,12,11,67,157,,09,38,237,,07,59,335,,01,39,159,*74
$GPRMC,093413.000,V,,,,,,,310317,,,N*46
$GPVTG,,T,,M,,N,,K,N*2C
$GPGGA,093414.000,,,,,0,00,,,M,,M,,0000*73
$GPRMC,093414.000,V,,,,,,,310317,,,N*41
$GPVTG,,T,,M,,N,,K,N*2C
$GPGGA,093415.000,,,,,0,00,,,M,,M,,0000*72
$GPRMC,093415.000,V,,,,,,,310317,,,N*40
$GPVTG,,T,,M,,N,,K,N*2C
$GPGGA,093416.000,,,,,0,00,,,M,,M,,0000*71
$GPRMC,093416.000,V,,,,,,,310317,,,N*43
$GPVTG,,T,,M,,N,,K,N*2C
$GPGGA,093417.000,,,,,0,00,,,M,,M,,0000*70
$GPRMC,093417.000,V,,,,,,,310317,,,N*42
$GPVTG,,T,,M,,N,,K,N*2C
$GPGGA,093418.000,,,,,0,00,,,M,,M,,0000*7F
$GPGSA,A,1,,,,,,,,,,,,,,,*1E
$GPGSV,3,1,12,08,54,018,22,27,19,036,34,16,09,073,26,30,20,322,*7B
$GPGSV,3,2,12,28,12,291,,23,26,194,,22,03,151,,17,03,228,*7A
$GPGSV,3,3,12,11,67,157,,09,38,237,,07,59,335,,01,39,159,*74
$GPRMC,093418.000,V,,,,,,,310317,,,N*4D
$GPVTG,,T,,M,,N,,K,N*2C
$GPGGA,093419.000,,,,,0,00,,,M,,M,,0000*7E
$GPRMC,093419.000,V,,,,,,,310317,,,N*4C
$GPVTG,,T,,M,,N,,K,N*2C
$GPGGA,093420.000,,,,,0,00,,,M,,M,,0000*74
$GPRMC,093420.000,V,,,,,,,310317,,,N*46
$GPVTG,,T,,M,,N,,K,N*2C
$GPGGA,093421.000,,,,,0,00,,,M,,M,,0000*75
$GPRMC,093421.000,V,,,,,,,310317,,,N*47
$GPVTG,,T,,M,,N,,K,N*2C
$GPGGA,093422.000,,,,,0,00,,,M,,M,,0000*76
$GPRMC,093422.000,V,,,,,,,310317,,,N*44
$GPVTG,,T,,M,,N,,K,N*2C
$GPGGA,093423.000,,,,,0,00,,,M,,M,,0000*77
$GPGSA,A,1,,,,,,,,,,,,,,,*1E
$GPGSV,3,1,12,08,54,018,22,27,19,036,34,16,09,073,26,30,20,322,*7B
$GPGSV,3,2,12,28,12,291,,23,26,194,,22,03,151,,17,03,228,*7A
$GPGSV,3,3,12,11,67,157,,09,38,237,,07,59,335,,01,39,159,*74
$GPRMC,093423.000,V,,,,,,,310317,,,N*45
$GPVTG,,T,,M,,N,,K,N*2C
$GPGGA,093424.000,,,,,0,00,,,M,,M,,0000*70
$GPRMC,093424.000,V,,,,,,,310317,,,N*42
$GPVTG,,T,,M,,N,,K,N*2C
$GPGGA,093425.000,,,,,0,00,,,M,,M,,0000*71
$GPRMC,093425.000,V,,,,,,,310317,,,N*43
$GPVTG,,T,,M,,N,,K,N*2C
$GPGGA,093426.000,,,,,0,00,,,M,,M,,0000*72
$GPRMC,093426.000,V,,,,,,,310317,,,N*40
$GPVTG,,T,,M,,N,,K,N*2C
$GPGGA,093427.000,,,,,0,00,,,M,,M,,0000*73
$GPRMC,093427.000,V,,,,,,,310317,,,N*41
$GPVTG,,T,,M,,N,,K,N*2C
$GPGGA,093428.000,,,,,0,00,,,M,,M,,0000*7C
$GPGSA,A,1,,,,,,,,,,,,,,,*1E
$GPGSV,3,1,12,08,54,018,22,27,19,036,34,16,09,073,26,30,21,322,*7A
$GPGSV,3,2,12,28,12,291,,23,26,194,,22,03,151,,17,03,228,*7A
$GPGSV,3,3,12,11,67,157,,09,38,237,,07,59,335,,01,39,159,*74
$GPRMC,093428.000,V,,,,,,,310317,,,N*4E
$GPVTG,,T,,M,,N,,K,N*2C
$GPGGA,093429.000,,,,,0,00,,,M,,M,,0000*7D
$GPRMC,093429.000,V,,,,,,,310317,,,N*4F
$GPVTG,,T,,M,,N,,K,N*2C
$GPGGA,093430.000,,,,,0,00,,,M,,M,,0000*75
$GPRMC,093430.000,V,,,,,,,310317,,,N*47
$GPVTG,,T,,M,,N,,K,N*2C
$GPGGA,093431.000,,,,,0,00,,,M,,M,,0000*74
$GPRMC,093431.000,V,,,,,,,310317,,,N*46
